DIST_CODE,DIST_NAME,RETAILER,LAPU_SIM,ADDRESS,LATITUDE,LONGITUDE,LANDMARK,Country,State,DISTRICT,VILLAGE,TEHSIL,PINCODE,CONTACT_NUM,CONTACT,CONTACT_EMAIL,EVD_FLAG,ACT_RECHARGE,GCMO,PRODUCT_TYPE,RETAILER_CATEGORY,RETAILER_BUS,SIGNAGE_TYPE,RETAILER_TYPE,SALES
1056793,Gaurav Sales,KOMAL MOBILE POINT,7770900001,"GONER MOD, NEAR CHOKHI DHANI, TONK ROAD, JAIPUR",26.766808,75.836115,NEAR CHOKHI DHANI,India,Rajasthan,JAIPUR,JAIPUR,JAIPUR,302033,9829510818,GHANSHYAM SHARMA,,YES,RECHARGE & ACTIVATION,GCMO,STARTER PACK AND RECHARGE,B,TELECOM,NA,MULTI BRANDED,96
1056793,Gaurav Sales,RK MOBILE,7770900002,"BEHIND CHEELGAADI, PLOT NO. 2, AIRPORT ROAD",26.815323,75.80004,"BEHIND CHEELGAADI, SANGANER",India,Rajasthan,JAIPUR,JAIPUR,JAIPUR,302011,9694374358,MAHESH SUWALKI,,YES,RECHARGE & ACTIVATION,GCMO,STARTER PACK AND RECHARGE,C,TELECOM,NONLIT,MULTI BRANDED,23
1056793,Gaurav Sales,PADAM PRABHU FANCY STORE,7770900002,"3A, SURYA NAGAR, TAARON KI KOOT",26.835894,75.794229,TAARON KI KOOT,India,Rajasthan,JAIPUR,JAIPUR,JAIPUR,302018,9929688693,VINOD KUMAR JAIN,,YES,RECHARGE & ACTIVATION,GCMO,STARTER PACK AND RECHARGE,D,GENERAL STORE,NA,MULTI BRANDED,27
1056793,Gaurav Sales,RAJ MOBILE AND ELECTRICALS,7770900003,"KAGZI MOHALLA KE PAAS, PURANA TEMPO STAND, SANGANER",26.821862,75.774276,"PURANA TEMPO STAND, SANGANER",India,Rajasthan,JAIPUR,JAIPUR,JAIPUR,302011,9314581549,SIRAJ MOHAMMAD,,YES,RECHARGE & ACTIVATION,GCMO,STARTER PACK AND RECHARGE,C,OTHER,NA,MULTI BRANDED,30
1056793,Gaurav Sales,SHREE BALAJI MOBILE AND COMPUTERS,7770900003,"SHOP NO. - C5, DIGGI MALPURA ROAD, NEAR SAWAI MADHOPUR RAILWAY LINE",26.80869,75.777776,NEAR SAWAI MADHOPUR LINE,India,Rajasthan,JAIPUR,JAIPUR,JAIPUR,302011,9602420208,OM PRAKASH SAINI,,YES,RECHARGE & ACTIVATION,GCMO,STARTER PACK AND RECHARGE,A+,TELECOM,NA,MULTI BRANDED,181
1056793,Gaurav Sales,VIJAY MOBILE POINT,7770900004,"MALPURA GATE, DIGGI ROAD, SANGANER","26.803734,",75.773504,OPP. KABRISTAN,India,Rajasthan,JAIPUR,JAIPUR,JAIPUR,302011,9928587716,RAM RATAN CHOUDHARY,,YES,RECHARGE & ACTIVATION,GCMO,STARTER PACK AND RECHARGE,B,TELECOM,LIT,MULTI BRANDED,141
1056793,Gaurav Sales,JAI MATA DI MOBILE,7770900004,"MALPURA GATE, SANGANER",26.81156,75.781711,NEAR MALPURA GATE,India,Rajasthan,JAIPUR,JAIPUR,JAIPUR,302011,8003403270,RADHA MOHAN SAINI,,YES,RECHARGE & ACTIVATION,GCMO,STARTER PACK AND RECHARGE,A+,TELECOM,NA,MULTI BRANDED,76
1056793,Gaurav Sales,CHOUDHARY ENTERPRISES,7770900005,"SHOP NO. - 11, OPP. AGARWAL HOSPITAL, STATION ROAD, SANGANER",26.811686,75.779674,OPP. AGARWAL HOSIPTAL,India,Rajasthan,JAIPUR,JAIPUR,JAIPUR,302011,9829012730,MAHADEV CHOUDHARY,,YES,RECHARGE & ACTIVATION,GCMO,STARTER PACK AND RECHARGE,A+,TELECOM,LIT,MULTI BRANDED,117
1056793,Gaurav Sales,PUJA MOBILE CENTER,7770900005,"SANGANER RAILWAY STATION ROAD, NEAR KOHINOOR CINEMA",26.812402,75.778218,NEAR KOHINOOR CINEMA,India,Rajasthan,JAIPUR,JAIPUR,JAIPUR,302011,9928707701,MURLI MANOHAR SHARMA,,YES,RECHARGE & ACTIVATION,GCMO,STARTER PACK AND RECHARGE,B,TELECOM,NA,MULTI BRANDED,178
1056793,Gaurav Sales,VIJAY MOBILE CENTER,7770900006,"SANGANER RAILWAY STATION ROAD, OPP. SANGAM CINEMA",26.812866,75.774568,OPP. SANGAM CINEMA,India,Rajasthan,JAIPUR,JAIPUR,JAIPUR,302011,9314329215,VIJAY KUMAR SINGH,,YES,RECHARGE,GCMO,STARTER PACK AND RECHARGE,B,TELECOM,LIT,MULTI BRANDED,93
1056793,Gaurav Sales,VISHAL ENTERPRISES,7770900006,"RAMPURA ROAD, SANGANER, KALYAN PURA",26.814468,75.772995,OPP. WIZARD INDIA,India,Rajasthan,JAIPUR,JAIPUR,JAIPUR,302011,9024648636,AVINASH KHANDELWAL,,YES,RECHARGE,GCMO,RECHARGE COUPON,E,GENERAL STORE,NONLIT,MULTI BRANDED,152
1056793,Gaurav Sales,MANSI MOBILE POINT,7770900007,"RAMPURA ROAD, SANGANER",26.820137,75.761875,RAMPURA ROAD,India,Rajasthan,JAIPUR,JAIPUR,JAIPUR,302011,9929985449,HEMRAJ,,YES,RECHARGE & ACTIVATION,GCMO,STARTER PACK AND RECHARGE,C,TELECOM,NONLIT,MULTI BRANDED,88
1056793,Gaurav Sales,CHOUDHARY MOBILE POINT,7770900007,"SHOP NO. 28, GANPATI NAGAR, RAMPURA ROAD, SANGANER",26.820099,75.76209,RAMPURA ROAD,India,Rajasthan,JAIPUR,JAIPUR,JAIPUR,302011,9352641913,GOPAL CHOUDHARY,,YES,RECHARGE & ACTIVATION,GCMO,STARTER PACK AND RECHARGE,B,TELECOM,LIT,MULTI BRANDED,90
1056793,Gaurav Sales,RATHORE MOBILE POINT,7770900008,"SHOP NO. 16,17,18, BAIJNATH GUEST GHOUSE, RAMPURA ROAD, SANGANER",26.820367,75.76106,RAMPURA ROAD,India,Rajasthan,JAIPUR,JAIPUR,JAIPUR,302011,9983020202,AJIT SINGH RATHORE,,YES,RECHARGE & ACTIVATION,GCMO,STARTER PACK AND RECHARGE,A+,TELECOM,LIT,MULTI BRANDED,70
1056793,Gaurav Sales,USHA MOBILE AND REPAIRING CENTER,7770900008,"ANITA COLONY D, RAMPURA ROAD, SANGANER",26.818706,75.767021,RAMPURA ROAD,India,Rajasthan,JAIPUR,JAIPUR,JAIPUR,302011,9602420253,AMIT PAREEK,,YES,RECHARGE & ACTIVATION,GCMO,STARTER PACK AND RECHARGE,A+,TELECOM,NA,MULTI BRANDED,156
1056793,Gaurav Sales,SHRI RAM MOBILE POINT,7770900009,"PRATAP VIHAR COLONY, RAMPURA ROAD, SANGANER",26.818591,75.768405,RAMPURA ROAD,India,Rajasthan,JAIPUR,JAIPUR,JAIPUR,302011,9269182410,BHANWAR,,YES,RECHARGE & ACTIVATION,GCMO,STARTER PACK AND RECHARGE,A+,TELECOM,NONLIT,MULTI BRANDED,150
1056793,Gaurav Sales,RIDHI SIDHI TRADING COMPANY,7770900009,"RAMPURA ROAD, SANGANER",26.819558,75.764972,RAMPURA ROAD,India,Rajasthan,JAIPUR,JAIPUR,JAIPUR,302011,9166625441,RAJESH KHANDELWAL,,YES,RECHARGE,GCMO,RECHARGE COUPON,E,GENERAL STORE,NONLIT,MULTI BRANDED,108
1056793,Gaurav Sales,USHA MOBILE POINT,7770900010,"JIVAN VIHAR, RAMPURA ROAD, OPP. ARYAN INTERNATION ACADEMY SANGANER",26.820688,75.760927,RAMPURA ROAD,India,Rajasthan,JAIPUR,JAIPUR,JAIPUR,302011,9602420253,AMIT PAREEK,,YES,RECHARGE,GCMO,RECHARGE COUPON,E,TELECOM,NONLIT,MULTI BRANDED,99
1056793,Gaurav Sales,AGARWAL DEPARTMENTAL STORE,7770900010,"100/85 SECTOR 10, KUMBHA MARG, PRATAP NAGAR, JAIPUR",26.802421,75.822632,"KUMBHA MARG, PRATAP NAGAR",India,Rajasthan,JAIPUR,JAIPUR,JAIPUR,302033,9887240190,SUNIL AGARWAL,,YES,RECHARGE & ACTIVATION,GCMO,STARTER PACK AND RECHARGE,B,GENERAL STORE,GS & NONLIT,MULTI BRANDED,26
1056793,Gaurav Sales,SHRI RAM DEPARTMENTAL STORE,7770900011,"192/322, KUMBHA MARG, PRATAP NAGAR, JAIPUR",26.803254,75.823093,"SECTOR 19, KUMBHA MARG",India,Rajasthan,JAIPUR,JAIPUR,JAIPUR,302033,9950202461,MUKESH KUMAR CHOUDHARY,,YES,RECHARGE,GCMO,RECHARGE COUPON,E,GENERAL STORE,NONLIT,MULTI BRANDED,136
1056793,Gaurav Sales,BALAJI DEPARTMENTAL STORE,7770900011,"192/339, SECTOR 19, KUMBHA MARG, PRATAP NAGAR, JAIPUR",26.804384,75.822535,"SECTOR 19, KUMBHA MARG",India,Rajasthan,JAIPUR,JAIPUR,JAIPUR,302033,9950202571,AJAY KHANDELWAL,,YES,RECHARGE & ACTIVATION,GCMO,STARTER PACK AND RECHARGE,B,GENERAL STORE,NONLIT,MULTI BRANDED,85
1056793,Gaurav Sales,ABHISHEK DEPARTMENTAL STORE AND TELECOM CENTER,7770900012,"193/202, SECTOR 19, PRATAP NAGAR, JAIPUR",26.807284,75.836571,"NEAR NRI CIRCLE, KUMBHA MARG",India,Rajasthan,JAIPUR,JAIPUR,JAIPUR,302033,9887260728,ABHISHEK SOLANKI,,YES,RECHARGE & ACTIVATION,GCMO,STARTER PACK AND RECHARGE,A+,TELECOM,NONLIT,MULTI BRANDED,183
1056793,Gaurav Sales,JITENDRA KIRANA STORE,7770900012,"173/204, SECTOR 17, NRI CIRCLE, KUMBHA MARG, PRATAP NAGAR, JAIPUR",26.807523,75.835831,"NEAR NRI CIRCLE, KUMBHA MARG",India,Rajasthan,JAIPUR,JAIPUR,JAIPUR,302033,9950202572,JITENDRA KUMAR,,YES,RECHARGE,GCMO,RECHARGE COUPON,E,GENERAL STORE,NONLIT,MULTI BRANDED,40
1056793,Gaurav Sales,GUPTA MOBILE POINT,7770900013,"173/190, SECTOR 17, PRATAP NAGAR",26.810879,75.830875,"KUMBHA MARG, PRATAP NAGAR",India,Rajasthan,JAIPUR,JAIPUR,JAIPUR,302033,9784308813,DEVENDRA GUPTA,,YES,RECHARGE & ACTIVATION,GCMO,STARTER PACK AND RECHARGE,A+,TELECOM,GS   ,MULTI BRANDED,193
1056793,Gaurav Sales,AGARWAL'S HELLO INDIA,7770900013,"174/116, SECTOR 17, KUMBHA MARG, PRATAP NAGAR, JAIPUR",26.810132,75.82845,"KUMBHA MARG, PRATAP NAGAR",India,Rajasthan,JAIPUR,JAIPUR,JAIPUR,302033,9784498220,YOGESH GARG,,YES,RECHARGE & ACTIVATION,GCMO,STARTER PACK AND RECHARGE,A+,TELECOM,GS,MULTI BRANDED,96
1056793,Gaurav Sales,BALAJI MOBILE AND STATIONERS,7770900014,"192/11, SECTOR 19, PRATAP NAGAR, JAIPUR",26.804797,75.831722,"KUMBHA MARG, PRATAP NAGAR",India,Rajasthan,JAIPUR,JAIPUR,JAIPUR,302033,9414795521,SHYAM SUNDAR GOYAL,,YES,RECHARGE & ACTIVATION,GCMO,STARTER PACK AND RECHARGE,A+,OTHERS,GS,MULTI BRANDED,24
1056793,Gaurav Sales,SALASAR STATIONERS,7770900014,"180/6, SECTOR 18, PRATAP NAGAR, JAIPUR",26.802258,75.826479,"SECTOR 18, PRATAP NAGAR",India,Rajasthan,JAIPUR,JAIPUR,JAIPUR,302033,9929128660,MAHAVIR SWAMI,,YES,RECHARGE,GCMO,RECHARGE COUPON,E,OTHERS,NA,MULTI BRANDED,56
1056793,Gaurav Sales,SHRI RAM GIFT AND MOBILE SHOP,7770900015,"180/11, SECTOR 18, PRATAP NAGAR, JAIPUR",26.801578,75.827284,"SECTOR 18, PRATAP NAGAR",India,Rajasthan,JAIPUR,JAIPUR,JAIPUR,302033,9928587792,MANNA RAM,,YES,RECHARGE & ACTIVATION,GCMO,STARTER PACK AND RECHARGE,A,OTHERS,GS,MULTI BRANDED,101
1056793,Gaurav Sales,KANAK MOBILE POINT,7770900015,"180/4, SECTOR 18, PRATAP NAGAR, JAIPUR",26.802698,75.829569,"SECTOR 18, PRATAP NAGAR",India,Rajasthan,JAIPUR,JAIPUR,JAIPUR,302033,9414312407,MONESH KISHORE SAINI,,YES,RECHARGE & ACTIVATION,GCMO,STARTER PACK AND RECHARGE,C,OTHERS,GS,MULTI BRANDED,87
1056793,Gaurav Sales,DHEERAJ PHOTO STUDIO,7770900016,"180/139, SECTOR 18, PRATAP NAGAR, JAIPUR",26.801903,75.830374,"SECTOR 18, PRATAP NAGAR",India,Rajasthan,JAIPUR,JAIPUR,JAIPUR,302033,9351583197,DHEERAJ TURPANI,,YES,RECHARGE & ACTIVATION,GCMO,STARTER PACK AND RECHARGE,A,OTHERS,NA,MULTI BRANDED,197
1056793,Gaurav Sales,PYRAMID MOBILE WORLD,7770900016,"180/01, SECTOR 18, PRATAP NAGAR, JAIPUR",26.800878,75.831447,"SECTOR 18, PRATAP NAGAR",India,Rajasthan,JAIPUR,JAIPUR,JAIPUR,302033,9602420225,KISHORE PARWANI,,YES,RECHARGE & ACTIVATION,GCMO,STARTER PACK AND RECHARGE,A+,TELECOM,NONLIT,MULTI BRANDED,113
1056793,Gaurav Sales,STUDENT POINT,7770900017,"101/44, SHOP NO. 2, KUMBHA MARG, PRATAP NAGAR, JAIPUR",26.798013,75.824651,"SECTOR-10, PRATAP NAGAR",India,Rajasthan,JAIPUR,JAIPUR,JAIPUR,302033,9828912835,MANISH GUPTA,,YES,RECHARGE & ACTIVATION,GCMO,STARTER PACK AND RECHARGE,A,OTHERS,NA,MULTI BRANDED,23
1056793,Gaurav Sales,KAPILA STATIONERS,7770900017,"11-SP-A3, RHB, KUMBHA MARG, PRATAP MARG, JAIPUR",26.799009,75.824941,"SECTOR-11, PRATAP NAGAR",India,Rajasthan,JAIPUR,JAIPUR,JAIPUR,302033,9351538510,MAHENDRA KUMAR MAHESHCHANDANI,,YES,RECHARGE,GCMO,RECHARGE COUPON,E,OTHERS,NA,MULTI BRANDED,56
1056793,Gaurav Sales,BAJRANG DEPARTMENTAL STORE,7770900018,"SECTOR-8, KRISHNA COMPLEX, PRATAP NAGAR, JAIPUR",26.800435,75.81918,"KRISHNA COMPLEX, SECTOR 8",India,Rajasthan,JAIPUR,JAIPUR,JAIPUR,302033,9983054324,KANHAIYA LAL SHARMA,,YES,RECHARGE,GCMO,RECHARGE COUPON,E,GENERAL STORE,NA,MULTI BRANDED,17
1056793,Gaurav Sales,J.I.M.T.,7770900018,"85/699, PRATAP NAGAR, SECTOR 8 MARKET, SANGANER, JAIPUR",26.802525,75.822609,"SECTOR-8, PRATAP NAGAR",India,Rajasthan,JAIPUR,JAIPUR,JAIPUR,302033,9887402600,SUNNY JINDAL,,YES,RECHARGE,GCMO,RECHARGE COUPON,E,TELECOM,NA,MULTI BRANDED,192
1056793,Gaurav Sales,DEEPAK ELECTRONICS,7770900019,"85/317, SECTOR 8, BHAMASHAH MARG, PRATAP NAGAR",26.80321,75.823473,"SECTOR-8, PRATAP NAGAR",India,Rajasthan,JAIPUR,JAIPUR,JAIPUR,302033,9829610512,DEEPAK KHANDELWAL,,YES,RECHARGE & ACTIVATION,GCMO,STARTER PACK AND RECHARGE,B,OTHERS,NA,MULTI BRANDED,81
1056793,Gaurav Sales,KHUSHI TELICOM,7770900019,"85/315, SECTOR 8, PRATAP NAGAR, JAIPUR",26.802401,75.823548,"SECTOR-8, PRATAP NAGAR",India,Rajasthan,JAIPUR,JAIPUR,JAIPUR,302033,9214305073,SUDEEP JAMINI,,YES,RECHARGE & ACTIVATION,GCMO,STARTER PACK AND RECHARGE,A+,TELECOM,GS,MULTI BRANDED,147
1056793,Gaurav Sales,VIJAY MEDICAL & GENERAL STORE,7770900020,"80/127, SECTOR 8, PRATAP NAGAR, JAIPUR",26.802401,75.827548,"SECTOR-8, PRATAP NAGAR",India,Rajasthan,JAIPUR,JAIPUR,JAIPUR,302033,9351394646,VISHWANATH VIJAY,,YES,RECHARGE,GCMO,RECHARGE COUPON,E,CHEMIST,GS,MULTI BRANDED,103
1056793,Gaurav Sales,J.L. GIFTS AND GREETING CARDS,7770900020,"86/147, SECTOR 8, PRATAP NAGAR, JAIPUR",26.801809,75.823944,"SECTOR-8, PRATAP NAGAR",India,Rajasthan,JAIPUR,JAIPUR,JAIPUR,302033,9829610549,BHAGWAN DAS,,YES,RECHARGE & ACTIVATION,GCMO,STARTER PACK AND RECHARGE,D,OTHERS,GS,MULTI BRANDED,63
1056793,Gaurav Sales,SHREE JI COMPUTERS AND MOBILE,7770900021,"SHOP NO. 86/147, SECTOR 8, PRATAP NAGAR, JAIPUR",26.802513,75.824947,"SECTOR-8, PRATAP NAGAR",India,Rajasthan,JAIPUR,JAIPUR,JAIPUR,302033,9784498223,RAVI AGRAWAL,,YES,RECHARGE & ACTIVATION,GCMO,STARTER PACK AND RECHARGE,B,OTHERS,GS,MULTI BRANDED,136
1056793,Gaurav Sales,MAHESHWARI COMMUNICATIONS,7770900021,"80/152, SECTOR 8, PRATAP NAGAR, JAIPUR",26.802733,75.82411,"SECTOR-8, PRATAP NAGAR",India,Rajasthan,JAIPUR,JAIPUR,JAIPUR,302033,9460594120,ASHOK MAHESHWARI,,YES,RECHARGE,GCMO,RECHARGE COUPON,E,TELECOM,NA,MULTI BRANDED,180
1056793,Gaurav Sales,SUNIL MOBILE,7770900022,"86/149, BHAMASHAH MARG,KALYAN TOWER, SECTOR 8, PRATAP NAGAR, JAIPUR",26.800124,75.814986,OPP. SAINT SOLDIER SCHOOL,India,Rajasthan,JAIPUR,JAIPUR,JAIPUR,302033,9784497954,SUNIL KUMAR SHARMA,,YES,RECHARGE & ACTIVATION,GCMO,STARTER PACK AND RECHARGE,A+,TELECOM,NA,MULTI BRANDED,46
1056793,Gaurav Sales,MONICA COLLECTION,7770900022,"85/175, SECTOR 8, PRATAP NAGAR, JAIPUR",26.802405,75.822791,"SECTOR-8, PRATAP NAGAR",India,Rajasthan,JAIPUR,JAIPUR,JAIPUR,302033,9887110085,MANTHAN KHATRI,,YES,RECHARGE,GCMO,RECHARGE COUPON,E,OTHERS,NA,MULTI BRANDED,84
1056793,Gaurav Sales,ROLISH GEN. & FANCY STORE,7770900023,"67/186, PRATAP NAGAR, SANGANER, JAIPUR",26.808855,75.817699,"SECTOR-6, DAWAI FACTORY ROAD",India,Rajasthan,JAIPUR,JAIPUR,JAIPUR,302033,9784497152,RAJEEV SHARMA,,YES,RECHARGE,GCMO,RECHARGE COUPON,E,GENERAL STORE,NA,MULTI BRANDED,12
1056793,Gaurav Sales,SHREE JI COLLECTION,7770900023,"SHOP NO. 14, RAM NAGAR, BEHIND CHOUDHARY PETROL PUMP, BAIRWA COLONY",26.815257,75.803374,"BAIRWA COLONY, SANGANER",India,Rajasthan,JAIPUR,JAIPUR,JAIPUR,302011,9887234086,SUNIL JAIN,,YES,RECHARGE & ACTIVATION,GCMO,STARTER PACK AND RECHARGE,C,GENERAL STORE,NA,MULTI BRANDED,49
1056793,Gaurav Sales,KHUSBHOO ENTERPRISES,7770900024,"37, GOVIND NAGAR, BEHIND CHOUDHARY PETROL PUMP, SANGANER",26.81518,75.801647,"GOVIND NAGAR, SANGANER",India,Rajasthan,JAIPUR,JAIPUR,JAIPUR,302011,9414042513,MUKESH KANEWAL,,YES,RECHARGE & ACTIVATION,GCMO,STARTER PACK AND RECHARGE,A+,TELECOM,GS,MULTI BRANDED,131
1056793,Gaurav Sales,PAREEK COMMUNICATION,7770900024,"PLOT NO. 28, RAGHUNATH PURI-II, TONK ROAD, SANGANER",26.808188,75.806915,RAGHUNATHPURI-IIND,India,Rajasthan,JAIPUR,JAIPUR,JAIPUR,302011,9314102838,ASHISH PAREEK,,YES,RECHARGE & ACTIVATION,GCMO,STARTER PACK AND RECHARGE,B,TELECOM,NONLIT,MULTI BRANDED,146
1056793,Gaurav Sales,RAMAN ELECTRONICS,7770900025,"17, RAGHUNATHPURI-II, BEHIND CHOUDHARY PETROL PUMP, SANGANER",26.814719,75.801836,RAGHUNATHPURI-IIND,India,Rajasthan,JAIPUR,JAIPUR,JAIPUR,302011,9414781817,RAMAN M.M.,,YES,RECHARGE,GCMO,RECHARGE COUPON,E,OTHERS,NA,MULTI BRANDED,160
1056793,Gaurav Sales,ROYAL MOBILE POINT,7770900025,"BAIRWA COLONY, SABZI MANDI, BEHIND CHOUDHARY PETROL PUMP",26.815844,75.802549,"BAIRWA COLONY, SANGANER",India,Rajasthan,JAIPUR,JAIPUR,JAIPUR,302011,9829302807,ASHISH VERMA,,YES,RECHARGE & ACTIVATION,GCMO,STARTER PACK AND RECHARGE,A+,TELECOM,NA,MULTI BRANDED,55
1056793,Gaurav Sales,N.L. JONWAL KIRANA STORE,7770900026,"BAIRWA COLONY, RAGHUNATHPURI-II, SANGANER",26.815451,75.802093,"BAIRWA COLONY, SANGANER",India,Rajasthan,JAIPUR,JAIPUR,JAIPUR,302011,9950202543,N.L. JONWAL,,YES,RECHARGE,GCMO,RECHARGE COUPON,E,GENERAL STORE,NA,MULTI BRANDED,19
1056793,Gaurav Sales,INDRA KIRANA STORE,7770900026,"78, RAGHUNATHPURI-II, BAIRWA COLONY, SANGANER",26.815226,75.803026,"BAIRWA COLONY, SANGANER",India,Rajasthan,JAIPUR,JAIPUR,JAIPUR,302011,9887306478,LOKESH AKHODIA,,YES,RECHARGE,GCMO,RECHARGE COUPON,E,GENERAL STORE,NONLIT,MULTI BRANDED,102
1056793,Gaurav Sales,DHAKAD MUSIC CENTER,7770900027,"SHOP NO. 13, BEHIND CHOUDHARY PETROL PUMP, BAIRWA COLONY",26.814881,75.802516,"BAIRWA COLONY, SANGANER",India,Rajasthan,JAIPUR,JAIPUR,JAIPUR,302011,9602420237,BHANU DHAKAD,,YES,RECHARGE & ACTIVATION,GCMO,STARTER PACK AND RECHARGE,B,OTHERS,NA,MULTI BRANDED,120
1056793,Gaurav Sales,FRIENDS MOBILE,7770900027,"29-A, SHIV COLONY, BEHIND CHOUDHARY PETROL PUMP, SANGANER",26.814982,75.801803,"BAIRWA COLONY, SANGANER",India,Rajasthan,JAIPUR,JAIPUR,JAIPUR,302011,9252410025,RAMDAYAL CHOUDHARY,,YES,RECHARGE & ACTIVATION,GCMO,STARTER PACK AND RECHARGE,A+,TELECOM,NONLIT,MULTI BRANDED,78
1056793,Gaurav Sales,RAKESH MOBILE CENTER,7770900028,"329, BAIRWA COLONY, SANGANER",26.815676,75.802436,"BAIRWA COLONY, SANGANER",India,Rajasthan,JAIPUR,JAIPUR,JAIPUR,302011,9950582648,RAKESH KUMAWAT,,YES,RECHARGE & ACTIVATION,GCMO,STARTER PACK AND RECHARGE,C,TELECOM,NA,MULTI BRANDED,59
1056793,Gaurav Sales,MANISHA MOBILES,7770900028,"MAHAVIR NAGAR, NEW SANGANER ROAD (NEAR OPEN JAIL), SANGANER",26.85415,75.790339,"NEAR OPEN JAIL, SANGANER",India,Rajasthan,JAIPUR,JAIPUR,JAIPUR,302011,9351869434,RAJENDRA PRASAD YOGI,,YES,RECHARGE & ACTIVATION,GCMO,STARTER PACK AND RECHARGE,B,TELECOM,NA,MULTI BRANDED,33
1056793,Gaurav Sales,MAHAVEER KIRANA & GENERAL STORE,7770900029,"OPP. 70/14, PRATAP NAGAR, NEAR BUS STAND, SHYOPUR, SANGANER",26.855107,75.795133,"SHYOPUR, SANGANER",India,Rajasthan,JAIPUR,JAIPUR,JAIPUR,303906,9799746008,MAHAVEER PRASAD JAIN,,YES,RECHARGE & ACTIVATION,GCMO,STARTER PACK AND RECHARGE,D,GENERAL STORE,NA,MULTI BRANDED,196
1056793,Gaurav Sales,KIRAN FANCY AND MOBILE SHOP,7770900029,"OPP. 70/14, SHYOPUR ROAD, PRATAP NAGAR, SANGANER",26.855796,75.795227,"SHYOPUR, SANGANER",India,Rajasthan,JAIPUR,JAIPUR,JAIPUR,303906,9352026422,MANJU JAIN,,YES,RECHARGE & ACTIVATION,GCMO,STARTER PACK AND RECHARGE,C,TELECOM,GS,MULTI BRANDED,44
1056793,Gaurav Sales,MUSKAAN MOBILE POINT,7770900030,"SITAPURA RIICO INDUSTRIES AREA, CHATRALA",26.779514,75.840751,"CHATRALA, SITAPURA",India,Rajasthan,JAIPUR,JAIPUR,JAIPUR,302022,9950986876,RAKESH SHARMA,,YES,RECHARGE & ACTIVATION,GCMO,STARTER PACK AND RECHARGE,C,TELECOM,GS,MULTI BRANDED,16
1056793,Gaurav Sales,SHREE RAM KIRANA STORE,7770900030,"BEHIND CHOUDHARY PETROL PUMP, SANGANER, JAIPUR",26.815069,75.800828,TONK ROAD,India,Rajasthan,JAIPUR,JAIPUR,JAIPUR,302011,9784498319,RAMVEER SINGH,,YES,RECHARGE,GCMO,RECHARGE COUPON,E,GENERAL STORE,NA,MULTI BRANDED,121
1056793,Gaurav Sales,ROSHNI ELECTRICALS,7770900031,"OPP. AIRPORT, AIRPORT ROAD SANGANER",26.829697,75.80384,"OPP. AIRPORT, SANGANER",India,Rajasthan,JAIPUR,JAIPUR,JAIPUR,302011,9784387029,CHUTTAN LAL JI,,YES,RECHARGE & ACTIVATION,GCMO,STARTER PACK AND RECHARGE,C,OTHERS,NA,MULTI BRANDED,97
1056793,Gaurav Sales,SIMRAN MOBILE,7770900031,"CHATRALA, RIICO IND. AREA, SITAPURA, SANGANER, JAIPUR",26.779814,75.840951,"CHATRALA, SITAPURA",India,Rajasthan,JAIPUR,JAIPUR,JAIPUR,302022,9950202401,RADHEY SHYAM,,YES,RECHARGE & ACTIVATION,GCMO,STARTER PACK AND RECHARGE,A+,TELECOM,NONLIT,MULTI BRANDED,153
1056793,Gaurav Sales,AIRPORT COSUMER STORE,7770900032,"OPP. AIRPORT, SHANTI COLONY, SANGANER, JAIPUR",26.829688,75.80322,"OPP. AIRPORT, SANGANER",India,Rajasthan,JAIPUR,JAIPUR,JAIPUR,302011,9828384815,NEERAJ ARYA,,YES,RECHARGE & ACTIVATION,GCMO,STARTER PACK AND RECHARGE,D,TELECOM,NA,MULTI BRANDED,174
1056793,Gaurav Sales,VISHNU MOBILE POINT,7770900032,"RIICO INDUSTRIAL AREA, CHATRALA, SITAPURA",26.779858,75.838241,"CHATRALA, SITAPURA",India,Rajasthan,JAIPUR,JAIPUR,JAIPUR,302022,9950986906,LALARAM SHARMA,,YES,RECHARGE & ACTIVATION,GCMO,STARTER PACK AND RECHARGE,A+,TELECOM,NONLIT,MULTI BRANDED,130
1056793,Gaurav Sales,ADINATH FANCY AND GENERAL STORE,7770900033,"OPP. AIRPORT, AIRPORT ROAD SANGANER",26.815114,75.800963,"OPP. AIRPORT, SANGANER",India,Rajasthan,JAIPUR,JAIPUR,JAIPUR,302011,9829327028,MAHENDRA KUMAR JAIN,,YES,RECHARGE & ACTIVATION,GCMO,STARTER PACK AND RECHARGE,B,OTHERS,NA,MULTI BRANDED,55
1056793,Gaurav Sales,DIVYA MOBILE COMMUNICATION,7770900033,"57-58, OPP. AIRPORT, AIRPORT ROAD, SANGANER",26.814875,75.798774,"OPP. AIRPORT, SANGANER",India,Rajasthan,JAIPUR,JAIPUR,JAIPUR,302011,9950983182,SUMER SINGH,,YES,RECHARGE & ACTIVATION,GCMO,STARTER PACK AND RECHARGE,D,TELECOM,NA,MULTI BRANDED,146
1056793,Gaurav Sales,SHIVANI MOBILE POINT,7770900034,"RIICO INDUSTRIAL AREA, CHATRALA, SITAPURA",26.779858,75.838241,"CHATRALA, SITAPURA",India,Rajasthan,JAIPUR,JAIPUR,JAIPUR,302022,9829610554,MAHESH KUMAR JANGID,,YES,RECHARGE & ACTIVATION,GCMO,STARTER PACK AND RECHARGE,B,TELECOM,GS,MULTI BRANDED,185
1056793,Gaurav Sales,KANAK DIGITAL STUDIO AND  MOBILE POINT,7770900034,"MALPURA ROAD, RAILWAY STATION ROAD, SANGANER",26.811418,75.781467,"MALPURA GATE, SANGANER",India,Rajasthan,JAIPUR,JAIPUR,JAIPUR,302011,9829019704,KAILASH SAINI,,YES,RECHARGE & ACTIVATION,GCMO,STARTER PACK AND RECHARGE,C,TELECOM,NA,MULTI BRANDED,183
1056793,Gaurav Sales,RAJENDRA KIRANA & GENERAL STORE,7770900035,"OPP. 70/14, SHYOPUR ROAD, PRATAP NAGAR, SANGANER",26.808419,75.813227,"SHYOPUR ROAD, SANGANER",India,Rajasthan,JAIPUR,JAIPUR,JAIPUR,303906,9571838968,RAJENDRA   ,,YES,RECHARGE,GCMO,RECHARGE COUPON,E,GENERAL STORE,NA,MULTI BRANDED,53
1056793,Gaurav Sales,ADITYA MOBILE POINT,7770900035,"OPP. 70 SECTOR, SHYOPUR ROAD, PRATAP NAGAR, SANGANER",26.80907,75.812433,"SHYOPUR ROAD, SANGANER",India,Rajasthan,JAIPUR,JAIPUR,JAIPUR,303906,9784498190,RAJESH KUMAR SHARMA,,YES,RECHARGE & ACTIVATION,GCMO,STARTER PACK AND RECHARGE,B,TELECOM,GS,MULTI BRANDED,165
1056793,Gaurav Sales,AGRAWAL DEPARTMENTAL STORE,7770900036,"64/219, SHYOPUR ROAD, PRATAP NAGAR, SANGANER",26.809999,75.812015,"SHYOPUR ROAD, SANGANER",India,Rajasthan,JAIPUR,JAIPUR,JAIPUR,303906,9785229134,ASHOK GUPTA,,YES,RECHARGE,GCMO,RECHARGE COUPON,E,GENERAL STORE,NA,MULTI BRANDED,112
1056793,Gaurav Sales,PRADHAN COMPUTER'S & STATIONER'S,7770900036,"S-13, NEAR GONER PHATAK, SITAPURA INDUSTRIAL AREA, SITAPURA",26.768877,75.84776,SITAPURA INDUSTRIAL AREA,India,Rajasthan,JAIPUR,JAIPUR,JAIPUR,302022,9950841691,GIRIRAJ PRADHAN,,YES,RECHARGE & ACTIVATION,GCMO,STARTER PACK AND RECHARGE,A,OTHERS,LIT,MULTI BRANDED,175
1056793,Gaurav Sales,GUPTA STORE,7770900037,"SHIVPURI COLONY, BEHIND CHEELGAADI RESTAURANT, SANGANER",26.819443,75.810613,"BEHIND CHEELGAADI, SANGANER",India,Rajasthan,JAIPUR,JAIPUR,JAIPUR,302011,9829060832,RAJESH GUPTA,,YES,RECHARGE & ACTIVATION,GCMO,STARTER PACK AND RECHARGE,C,GENERAL STORE,NONLIT,MULTI BRANDED,26
1056793,Gaurav Sales,ROYAL MUSIC & MOBILE POINT,7770900037,"OPP. KOHINOOR CINEMA, STATION ROAD, SANGANER",26.812859,75.777854,OPP. KOHINOOR CINEMA,India,Rajasthan,JAIPUR,JAIPUR,JAIPUR,302011,9829677032,MOHD. SHAKIR,,YES,RECHARGE,GCMO,RECHARGE COUPON,E,OTHERS,NA,MULTI BRANDED,186
1056793,Gaurav Sales,SINGHAL PROVISION STORE,7770900038,"112, KALYAN NAGAR III, SITABARI, SANGANER",26.842217,75.79317,SITABARI,India,Rajasthan,JAIPUR,JAIPUR,JAIPUR,302011,9950202548,,,YES,RECHARGE,GCMO,RECHARGE COUPON,E,GENERAL STORE,NA,MULTI BRANDED,194
1056793,Gaurav Sales,SATYANARAYAN VISHNU KUMAR,7770900038,"P. NO. 51, PARSHAD NAGAR, BEEHIND CHEELGAADI RESTAURANT",26.821072,75.811293,"BEHIND CHEELGAADI, SANGANER",India,Rajasthan,JAIPUR,JAIPUR,JAIPUR,302011,9001473621,SATYANARAYAN GUPTA,,YES,RECHARGE,GCMO,RECHARGE COUPON,E,GENERAL STORE,NA,MULTI BRANDED,65
1056793,Gaurav Sales,PRIYANKA MOBILE POINT,7770900039,"OPP. HPCL DEPOT, SITAPURA OVERBRIDGE, SITAPURA",26.772895,75.835272,"OPP. HPCL DEPOT, SITAPURA",India,Rajasthan,JAIPUR,JAIPUR,JAIPUR,302022,9950794403,KAMAL KUMAR SAINI,,YES,RECHARGE & ACTIVATION,GCMO,STARTER PACK AND RECHARGE,B,TELECOM,NA,MULTI BRANDED,141
1056793,Gaurav Sales,SHREE DEV PRINTERS & MOBILE POINT,7770900039,"MALPURA GATE, SANGANER",26.811484,75.781569,"MALPURA GATE, SANGANER",India,Rajasthan,JAIPUR,JAIPUR,JAIPUR,302011,9602420204,GOPAL CHAND GURJAR,,YES,RECHARGE & ACTIVATION,GCMO,STARTER PACK AND RECHARGE,D,TELECOM,NONLIT,MULTI BRANDED,183
1056793,Gaurav Sales,STAR MOBILE & REPAIRING,7770900040,"NEAR RAILWAY STATION, DADABARI ROAD, SANGANER",26.812728,75.776857,"DADABARI ROAD, SANGANER",India,Rajasthan,JAIPUR,JAIPUR,JAIPUR,302011,9783535950,ARIF ALI,,YES,RECHARGE & ACTIVATION,GCMO,STARTER PACK AND RECHARGE,B,GENERAL STORE,NONLIT,MULTI BRANDED,78
1056793,Gaurav Sales,S.K. TRADING AND COMMUNICATION,7770900040,"GONER MOD, NEAR CHOKHI DHANI, TONK ROAD",26.796931,75.81405,GONER MOD,India,Rajasthan,JAIPUR,JAIPUR,JAIPUR,302011,9024922111,VIJAY KUMAR KANUNJIA,,YES,RECHARGE & ACTIVATION,GCMO,STARTER PACK AND RECHARGE,A,GENERAL STORE,NONLIT,MULTI BRANDED,114
1056793,Gaurav Sales,SAI KRIPA MOBILE WORLD,7770900041,"STATION ROAD, OPP. KOHINOOR CINEMA, SANGANER",26.812592,75.779119,OPP. KOHINOOR CINEMA,India,Rajasthan,JAIPUR,JAIPUR,JAIPUR,302011,9829497372,VIMAL VERMA,,YES,RECHARGE & ACTIVATION,GCMO,STARTER PACK AND RECHARGE,C,TELECOM,NA,MULTI BRANDED,100
1056793,Gaurav Sales,SHRI SHYAM KIRANA & GENERAL STORE,7770900041,"MAIN RAILWAY STATION, DADABARI ROAD, SANGANER",26.812099,75.778856,"DADABARI ROAD, SANGANER",India,Rajasthan,JAIPUR,JAIPUR,JAIPUR,302011,9784498215,RADHA KISHAN SHARMA,,YES,RECHARGE & ACTIVATION,GCMO,STARTER PACK AND RECHARGE,D,GENERAL STORE,NA,MULTI BRANDED,91
1056793,Gaurav Sales,SHIV MOBILE AND SERVICE CENTER,7770900042,"MALPURA GATE, SANGANER",26.811496,75.781439,"MALPURA GATE, SANGANER",India,Rajasthan,JAIPUR,JAIPUR,JAIPUR,302011,9950986953,RAMNIWAS CHOUDHARY,,YES,RECHARGE & ACTIVATION,GCMO,STARTER PACK AND RECHARGE,B,TELECOM,NONLIT,MULTI BRANDED,90
1056793,Gaurav Sales,CHITRAM PHOTO STUDIO AND COLOR LAB,7770900042,"STATION ROAD, MALPURA GATE, SANGANER, JAIPUR",26.811429,75.781426,"MALPURA GATE, OPP. POWER HOUSE",India,Rajasthan,JAIPUR,JAIPUR,JAIPUR,302011,9829277424,GAURI SHANKAR SHARMA,,YES,RECHARGE & ACTIVATION,GCMO,STARTER PACK AND RECHARGE,A+,OTHERS,NONLIT,MULTI BRANDED,45
1056793,Gaurav Sales,MAHIMA MOBILE POINT,7770900043,"GAURAV VIHAR, RAMPURA ROAD, SANGANER",26.819226,75.767329,RAMPURA ROAD,India,Rajasthan,JAIPUR,JAIPUR,JAIPUR,302011,9314539475,RAJESH CHAUDHARY,,YES,RECHARGE & ACTIVATION,GCMO,STARTER PACK AND RECHARGE,A+,TELECOM,GS,MULTI BRANDED,145
1056793,Gaurav Sales,RAMESH GENERAL STORE,7770900043,"GAON SUKHIA, RAMPURA ROAD, SANGANER",26.819896,75.76352,RAMPURA ROAD,India,Rajasthan,JAIPUR,JAIPUR,JAIPUR,302011,9928131932,SHANKAR SINGH SHERAWAT,,YES,RECHARGE,GCMO,RECHARGE COUPON,E,OTHERS,NA,MULTI BRANDED,141
1056793,Gaurav Sales,GANPATI KIRANA AND ELECTRONICS STORE,7770900044,"SHOP NO. 8, KALYANPURI COLONY, RAMPURA ROAD, SANGANER",26.820681,75.76057,RAMPURA ROAD,India,Rajasthan,JAIPUR,JAIPUR,JAIPUR,302011,9928586456,MURLI VIJAY,,YES,RECHARGE & ACTIVATION,GCMO,STARTER PACK AND RECHARGE,B,OTHERS,NA,MULTI BRANDED,113
1056793,Gaurav Sales,BALAJI MOBILE POINT,7770900044,"23, SHREEJI NAGAR, RAMPURA ROAD, SANGANER",26.821977,75.75395,RAMPURA ROAD,India,Rajasthan,JAIPUR,JAIPUR,JAIPUR,302011,9950202407,GHASIRAM SHARMA,,YES,RECHARGE & ACTIVATION,GCMO,STARTER PACK AND RECHARGE,A,TELECOM,GS,MULTI BRANDED,129
1056793,Gaurav Sales,SANMATI COMMUNICATION,7770900045,"SHOP NO. 55, RAMPURA ROAD, KALYAN NAGAR, SANGANER",26.820332,75.760489,RAMPURA ROAD,India,Rajasthan,JAIPUR,JAIPUR,JAIPUR,302011,9214356200,PRIYANKA JAIN,,YES,RECHARGE & ACTIVATION,GCMO,STARTER PACK AND RECHARGE,A+,TELECOM,NONLIT,MULTI BRANDED,130
1056793,Gaurav Sales,JAGDAMBA MOBILE POINT,7770900045,"DIGGI ROAD, NEAR SAWAI MADHOPUR PULIA, SANGANER",26.80751,75.777104,DIGGI ROAD,India,Rajasthan,JAIPUR,JAIPUR,JAIPUR,302011,9660560233,SATISH KUMAR SHARMA,,YES,RECHARGE & ACTIVATION,GCMO,STARTER PACK AND RECHARGE,B,TELECOM,NONLIT,MULTI BRANDED,141
1056793,Gaurav Sales,SUPER FAST MOBILE POINT,7770900046,"PLOT NO. 606, SABIR COLONY, RAILWAY STATION, SANGANER",26.809058,75.778175,MALPURA ROAD,India,Rajasthan,JAIPUR,JAIPUR,JAIPUR,302011,9636545462,ABDUL RAZZAQ,,YES,RECHARGE & ACTIVATION,GCMO,STARTER PACK AND RECHARGE,C,TELECOM,NONLIT,MULTI BRANDED,160
1056793,Gaurav Sales,RADHIKA MUSIC PALACE & MOBILE POINT,7770900046,"MALPURA GATE, NEAR POLICE STATION, SANGANER",26.811409,75.781321,MALPURA GATE,India,Rajasthan,JAIPUR,JAIPUR,JAIPUR,302011,9982230034,RAMKISHAN KUMAWAT,,YES,RECHARGE & ACTIVATION,GCMO,STARTER PACK AND RECHARGE,B,TELECOM,NA,MULTI BRANDED,44
1056793,Gaurav Sales,MOHAN GENERAL STORE AND STD PCO,7770900047,"MALPURA GATE, SANGANER",26.811428,75.781444,"NEAR POLICE STATION, SANGANER",India,Rajasthan,JAIPUR,JAIPUR,JAIPUR,302011,,MOHANLAL KUMAWAT,,YES,RECHARGE,GCMO,RECHARGE COUPON,E,GENERAL STORE,NA,MULTI BRANDED,10
1056793,Gaurav Sales,GOLU STD PCO & MOBILE,7770900047,"MALPURA GATE, NEAR POLICE STATION, SANGANER",26.811428,75.781444,MALPURA GATE,India,Rajasthan,JAIPUR,JAIPUR,JAIPUR,302011,9314191811,LAXMI NARAYAN SAINI,,YES,RECHARGE & ACTIVATION,GCMO,STARTER PACK AND RECHARGE,A,TELECOM,NONLIT,MULTI BRANDED,135
1056793,Gaurav Sales,MOBIL CENTER,7770900048,"OLD TEMPO STAND, MAIN MARKET, SANGANER",26.835845,75.827022,"OLD TEMPO STAND, SANGANER",India,Rajasthan,JAIPUR,JAIPUR,JAIPUR,302011,9602420220,RAMESH YADAV,,YES,RECHARGE & ACTIVATION,GCMO,STARTER PACK AND RECHARGE,A+,TELECOM,GS,MULTI BRANDED,11
1056793,Gaurav Sales,SAKSHI MOBILE PALACE,7770900048,"SANI COMPLEX, NEAR PULIYA, MAIN ROAD, SANGANER",26.818441,75.788835,MAIN SANGANER ROAD,India,Rajasthan,JAIPUR,JAIPUR,JAIPUR,302011,9414456437,MANOJ NAGAR,,YES,RECHARGE & ACTIVATION,GCMO,STARTER PACK AND RECHARGE,C,TELECOM,NONLIT,MULTI BRANDED,42
1056793,Gaurav Sales,R.S. COMPUTER & STATIONERY,7770900049,"S-11, RIICO INDUSTRIAL AREA, GONER MOD, SANGANER",26.766502,75.839586,SITAPURA INDUSTRIAL AREA,India,Rajasthan,JAIPUR,JAIPUR,JAIPUR,302022,9928941746,BHARAT SHARMA,,YES,RECHARGE & ACTIVATION,GCMO,STARTER PACK AND RECHARGE,A,TELECOM,GS,MULTI BRANDED,153
1056793,Gaurav Sales,KRISHNA MOBILE AND PROVISION STORE,7770900049,"S-191, RIICO INDUSTRIAL AREA, GONER MOD, NEAR HDFC ATM, SITAPURA",26.766055,75.837861,GONER PHATAK,India,Rajasthan,JAIPUR,JAIPUR,JAIPUR,302022,9982559551,PRAKASH BAGDE,,YES,RECHARGE & ACTIVATION,GCMO,STARTER PACK AND RECHARGE,A,TELECOM,NONLIT,MULTI BRANDED,181
1056793,Gaurav Sales,RAWAT MEDICAL AND PROVISION STORE,7770900050,"RAMPURA ROAD, SANGANER, JAIPUR",26.8224,75.75329,RAMPURA ROAD,India,Rajasthan,JAIPUR,JAIPUR,JAIPUR,302011,9929272674,RAKESH GUPTA,,YES,RECHARGE & ACTIVATION,GCMO,STARTER PACK AND RECHARGE,A,CHEMIST,NA,MULTI BRANDED,52
1056793,Gaurav Sales,SHIVA ELECTRONICS & MOBILE,7770900050,"NARAYAN VIHAR-II, RAMPURA ROAD, SANGANER",26.823597,75.752994,RAMPURA ROAD,India,Rajasthan,JAIPUR,JAIPUR,JAIPUR,302011,9667265899,SHIVRAJ BAIRWA,,YES,RECHARGE & ACTIVATION,GCMO,STARTER PACK AND RECHARGE,C,OTHERS,NA,MULTI BRANDED,33
1056793,Gaurav Sales,MANSOORY MOBILE POINT,7770900051,"SN-1, TRIVENI VIHAR, RAMPURA ROAD, SANGANER",26.818369,75.768535,RAMPURA ROAD,India,Rajasthan,JAIPUR,JAIPUR,JAIPUR,302011,9785491665,YUNUS KHAN,,,RECHARGE,GCMO,STARTER PACK AND RECHARGE,B,TELECOM,NA,MULTI BRANDED,200
1056793,Gaurav Sales,POONAM KIRANA STORE,7770900051,"SHOP NO. 1-2, RAMPURA ROAD, SANGANER, JAIPUR",26.818249,75.769054,RAMPURA ROAD,India,Rajasthan,JAIPUR,JAIPUR,JAIPUR,302011,9784793716,MANBAR DENI,,YES,RECHARGE,GCMO,RECHARGE COUPON,E,GENERAL STORE,NA,MULTI BRANDED,59
1056793,Gaurav Sales,PREM ELECTRONICS AND MOBILE POINT,7770900052,"PLOT NO. 8, SHANKAR NAGAR, RAMPURA ROAD, SANGANER",26.819395,75.763979,RAMPURA ROAD,India,Rajasthan,JAIPUR,JAIPUR,JAIPUR,302011,9928409980,HEMRAJ SAHOO,,YES,RECHARGE,GCMO,RECHARGE COUPON,E,TELECOM,NONLIT,MULTI BRANDED,165
1056794,Distributor of Lakshadweep,Lakshadweep Retailer 107344,7770900052,Plot No 107344 Lakshadweep,10.811724,73.6814184,Center of Lakshadweep,India,Lakshadweep,,,,107344,910732739,GHANSHYAM SHARMA,,YES,RECHARGE & ACTIVATION,GCMO,STARTER PACK AND RECHARGE,B,TELECOM,NA,MULTI BRANDED,75
1056794,Distributor of Lakshadweep,Lakshadweep Retailer 107344,7770900053,Plot No 107344 Lakshadweep,10.811724,73.6814234,Center of Lakshadweep,India,Lakshadweep,,,,107344,9107385413,MAHESH SUWALKI,,YES,RECHARGE & ACTIVATION,GCMO,STARTER PACK AND RECHARGE,C,TELECOM,NONLIT,MULTI BRANDED,190
1056794,Distributor of Lakshadweep,Lakshadweep Retailer 107344,7770900053,Plot No 107344 Lakshadweep,10.811724,73.6814284,Center of Lakshadweep,India,Lakshadweep,,,,107344,9107396334,VINOD KUMAR JAIN,,YES,RECHARGE & ACTIVATION,GCMO,STARTER PACK AND RECHARGE,D,GENERAL STORE,NA,MULTI BRANDED,89
1056794,Distributor of Lakshadweep,Lakshadweep Retailer 107344,7770900054,Plot No 107344 Lakshadweep,10.811724,73.6814334,Center of Lakshadweep,India,Lakshadweep,,,,107344,91073104221,SIRAJ MOHAMMAD,,YES,RECHARGE & ACTIVATION,GCMO,STARTER PACK AND RECHARGE,C,OTHER,NA,MULTI BRANDED,171
1056794,Distributor of Lakshadweep,Lakshadweep Retailer 107344,7770900054,Plot No 107344 Lakshadweep,10.811724,73.6814384,Center of Lakshadweep,India,Lakshadweep,,,,107344,9107372653,OM PRAKASH SAINI,,YES,RECHARGE & ACTIVATION,GCMO,STARTER PACK AND RECHARGE,A+,TELECOM,NA,MULTI BRANDED,82
1056794,Distributor of Lakshadweep,Lakshadweep Retailer 107344,7770900055,Plot No 107344 Lakshadweep,10.811724,73.6814434,Center of Lakshadweep,India,Lakshadweep,,,,107344,910738947,RAM RATAN CHOUDHARY,,YES,RECHARGE & ACTIVATION,GCMO,STARTER PACK AND RECHARGE,B,TELECOM,LIT,MULTI BRANDED,159
1056794,Distributor of Lakshadweep,Lakshadweep Retailer 107344,7770900055,Plot No 107344 Lakshadweep,10.811724,73.6814484,Center of Lakshadweep,India,Lakshadweep,,,,107344,910735674,RADHA MOHAN SAINI,,YES,RECHARGE & ACTIVATION,GCMO,STARTER PACK AND RECHARGE,A+,TELECOM,NA,MULTI BRANDED,59
1056794,Distributor of Lakshadweep,Lakshadweep Retailer 107394,7770900056,Plot No 107394 Lakshadweep,10.811709,73.6814334,Center of Lakshadweep,India,Lakshadweep,,,,107394,9107327967,MAHADEV CHOUDHARY,,YES,RECHARGE & ACTIVATION,GCMO,STARTER PACK AND RECHARGE,A+,TELECOM,LIT,MULTI BRANDED,34
1056794,Distributor of Lakshadweep,Lakshadweep Retailer 107344,7770900056,Plot No 107344 Lakshadweep,10.811714,73.6814334,Center of Lakshadweep,India,Lakshadweep,,,,107344,9107386042,MURLI MANOHAR SHARMA,,YES,RECHARGE & ACTIVATION,GCMO,STARTER PACK AND RECHARGE,B,TELECOM,NA,MULTI BRANDED,87
1056794,Distributor of Lakshadweep,Lakshadweep Retailer 107394,7770900057,Plot No 107394 Lakshadweep,10.811719,73.6814334,Center of Lakshadweep,India,Lakshadweep,,,,107394,91073100940,VIJAY KUMAR SINGH,,YES,RECHARGE & ACTIVATION,GCMO,STARTER PACK AND RECHARGE,B,TELECOM,LIT,MULTI BRANDED,153
1056794,Distributor of Lakshadweep,Lakshadweep Retailer 107344,7770900057,Plot No 107344 Lakshadweep,10.811724,73.6814334,Center of Lakshadweep,India,Lakshadweep,,,,107344,9107367763,AVINASH KHANDELWAL,,YES,RECHARGE,GCMO,RECHARGE COUPON,E,GENERAL STORE,NONLIT,MULTI BRANDED,89
1056794,Distributor of Lakshadweep,Lakshadweep Retailer 107394,7770900058,Plot No 107394 Lakshadweep,10.811729,73.6814334,Center of Lakshadweep,India,Lakshadweep,,,,107394,910731243,HEMRAJ,,YES,RECHARGE & ACTIVATION,GCMO,STARTER PACK AND RECHARGE,C,TELECOM,NONLIT,MULTI BRANDED,119
1056794,Distributor of Lakshadweep,Lakshadweep Retailer 107344,7770900058,Plot No 107344 Lakshadweep,10.811734,73.6814334,Center of Lakshadweep,India,Lakshadweep,,,,107344,9107330208,GOPAL CHOUDHARY,,YES,RECHARGE & ACTIVATION,GCMO,STARTER PACK AND RECHARGE,B,TELECOM,LIT,MULTI BRANDED,23
1056794,Distributor of Lakshadweep,Lakshadweep Retailer 107394,7770900059,Plot No 107394 Lakshadweep,10.811739,73.6814334,Center of Lakshadweep,India,Lakshadweep,,,,107394,9107384317,AJIT SINGH RATHORE,,YES,RECHARGE & ACTIVATION,GCMO,STARTER PACK AND RECHARGE,A+,TELECOM,LIT,MULTI BRANDED,46
1056794,Distributor of Lakshadweep,Lakshadweep Retailer 107394,7770900059,Plot No 107394 Lakshadweep,10.811709,73.6814334,Center of Lakshadweep,India,Lakshadweep,,,,107394,9107368967,AMIT PAREEK,,YES,RECHARGE & ACTIVATION,GCMO,STARTER PACK AND RECHARGE,A+,TELECOM,NA,MULTI BRANDED,42
1056794,Distributor of Lakshadweep,Lakshadweep Retailer 107344,7770900060,Plot No 107344 Lakshadweep,10.811714,73.6814334,Center of Lakshadweep,India,Lakshadweep,,,,107344,9107370583,BHANWAR,,YES,RECHARGE & ACTIVATION,GCMO,STARTER PACK AND RECHARGE,A+,TELECOM,NONLIT,MULTI BRANDED,192
1056794,Distributor of Lakshadweep,Lakshadweep Retailer 107394,7770900060,Plot No 107394 Lakshadweep,10.811719,73.6814334,Center of Lakshadweep,India,Lakshadweep,,,,107394,9107393874,RAJESH KHANDELWAL,,YES,RECHARGE,GCMO,RECHARGE COUPON,E,GENERAL STORE,NONLIT,MULTI BRANDED,147
1056794,Distributor of Lakshadweep,Lakshadweep Retailer 107344,7770900061,Plot No 107344 Lakshadweep,10.811724,73.6814334,Center of Lakshadweep,India,Lakshadweep,,,,107344,9107382821,AMIT PAREEK,,YES,RECHARGE,GCMO,RECHARGE COUPON,E,TELECOM,NONLIT,MULTI BRANDED,190
1056794,Distributor of Lakshadweep,Lakshadweep Retailer 107394,7770900061,Plot No 107394 Lakshadweep,10.811729,73.6814384,Center of Lakshadweep,India,Lakshadweep,,,,107394,9107381015,SUNIL AGARWAL,,YES,RECHARGE & ACTIVATION,GCMO,STARTER PACK AND RECHARGE,B,GENERAL STORE,GS & NONLIT,MULTI BRANDED,140
1056794,Distributor of Lakshadweep,Lakshadweep Retailer 107344,7770900062,Plot No 107344 Lakshadweep,10.811734,73.6814434,Center of Lakshadweep,India,Lakshadweep,,,,107344,9107357127,MUKESH KUMAR CHOUDHARY,,YES,RECHARGE,GCMO,RECHARGE COUPON,E,GENERAL STORE,NONLIT,MULTI BRANDED,195
1056794,Distributor of Lakshadweep,Lakshadweep Retailer 107394,7770900062,Plot No 107394 Lakshadweep,10.811739,73.6814484,Center of Lakshadweep,India,Lakshadweep,,,,107394,9107346418,AJAY KHANDELWAL,,YES,RECHARGE & ACTIVATION,GCMO,STARTER PACK AND RECHARGE,B,GENERAL STORE,NONLIT,MULTI BRANDED,136
1056794,Distributor of Lakshadweep,Lakshadweep Retailer 107394,7770900063,Plot No 107394 Lakshadweep,10.811739,73.6814484,Center of Lakshadweep,India,Lakshadweep,,,,107394,9107350046,ABHISHEK SOLANKI,,YES,RECHARGE & ACTIVATION,GCMO,STARTER PACK AND RECHARGE,A+,TELECOM,NONLIT,MULTI BRANDED,66
1056794,Distributor of Lakshadweep,Lakshadweep Retailer 107344,7770900063,Plot No 107344 Lakshadweep,10.811734,73.6814434,Center of Lakshadweep,India,Lakshadweep,,,,107344,9107348039,JITENDRA KUMAR,,YES,RECHARGE,GCMO,RECHARGE COUPON,E,GENERAL STORE,NONLIT,MULTI BRANDED,129
1056794,Distributor of Lakshadweep,Lakshadweep Retailer 107394,7770900064,Plot No 107394 Lakshadweep,10.811729,73.6814384,Center of Lakshadweep,India,Lakshadweep,,,,107394,9107347779,DEVENDRA GUPTA,,YES,RECHARGE & ACTIVATION,GCMO,STARTER PACK AND RECHARGE,A+,TELECOM,GS   ,MULTI BRANDED,89
1056794,Distributor of Lakshadweep,Lakshadweep Retailer 107344,7770900064,Plot No 107344 Lakshadweep,10.811724,73.6814334,Center of Lakshadweep,India,Lakshadweep,,,,107344,9107387816,YOGESH GARG,,YES,RECHARGE & ACTIVATION,GCMO,STARTER PACK AND RECHARGE,A+,TELECOM,GS,MULTI BRANDED,129
1056794,Distributor of Lakshadweep,Lakshadweep Retailer 107394,7770900065,Plot No 107394 Lakshadweep,10.811719,73.6814284,Center of Lakshadweep,India,Lakshadweep,,,,107394,9107377257,SHYAM SUNDAR GOYAL,,YES,RECHARGE & ACTIVATION,GCMO,STARTER PACK AND RECHARGE,A+,OTHERS,GS,MULTI BRANDED,164
1056794,Distributor of Lakshadweep,Lakshadweep Retailer 107344,7770900065,Plot No 107344 Lakshadweep,10.811714,73.6814234,Center of Lakshadweep,India,Lakshadweep,,,,107344,9107371971,MAHAVIR SWAMI,,YES,RECHARGE,GCMO,RECHARGE COUPON,E,OTHERS,NA,MULTI BRANDED,10
1056794,Distributor of Lakshadweep,Lakshadweep Retailer 107394,7770900066,Plot No 107394 Lakshadweep,10.811709,73.6814184,Center of Lakshadweep,India,Lakshadweep,,,,107394,9107333147,MANNA RAM,,YES,RECHARGE & ACTIVATION,GCMO,STARTER PACK AND RECHARGE,A,OTHERS,GS,MULTI BRANDED,83
1056795,Distributor of Kerala,Kerala Retailer 107655,7770900066,Plot No 107655 Kerala,10.8505,76.271085,Center of Kerala,India,Kerala,,,,107655,9107690977,MONESH KISHORE SAINI,,YES,RECHARGE & ACTIVATION,GCMO,STARTER PACK AND RECHARGE,C,OTHERS,GS,MULTI BRANDED,170
1056795,Distributor of Kerala,Kerala Retailer 107659,7770900067,Plot No 107659 Kerala,10.8505,76.27109,Center of Kerala,India,Kerala,,,,107659,9107654912,DHEERAJ TURPANI,,YES,RECHARGE & ACTIVATION,GCMO,STARTER PACK AND RECHARGE,A,OTHERS,NA,MULTI BRANDED,109
1056795,Distributor of Kerala,Kerala Retailer 107655,7770900067,Plot No 107655 Kerala,10.8505,76.271095,Center of Kerala,India,Kerala,,,,107655,9107680359,KISHORE PARWANI,,YES,RECHARGE & ACTIVATION,GCMO,STARTER PACK AND RECHARGE,A+,TELECOM,NONLIT,MULTI BRANDED,187
1056795,Distributor of Kerala,Kerala Retailer 107651,7770900068,Plot No 107651 Kerala,10.8505,76.2711,Center of Kerala,India,Kerala,,,,107651,9107620958,MANISH GUPTA,,YES,RECHARGE & ACTIVATION,GCMO,STARTER PACK AND RECHARGE,A,OTHERS,NA,MULTI BRANDED,137
1056795,Distributor of Kerala,Kerala Retailer 107655,7770900068,Plot No 107655 Kerala,10.8505,76.271105,Center of Kerala,India,Kerala,,,,107655,9107678990,MAHENDRA KUMAR MAHESHCHANDANI,,YES,RECHARGE,GCMO,RECHARGE COUPON,E,OTHERS,NA,MULTI BRANDED,75
1056795,Distributor of Kerala,Kerala Retailer 107651,7770900069,Plot No 107651 Kerala,10.8505,76.27111,Center of Kerala,India,Kerala,,,,107651,9107615097,KANHAIYA LAL SHARMA,,YES,RECHARGE,GCMO,RECHARGE COUPON,E,GENERAL STORE,NA,MULTI BRANDED,168
1056795,Distributor of Kerala,Kerala Retailer 107655,7770900069,Plot No 107655 Kerala,10.8505,76.271115,Center of Kerala,India,Kerala,,,,107655,9107636826,SUNNY JINDAL,,YES,RECHARGE,GCMO,RECHARGE COUPON,E,TELECOM,NA,MULTI BRANDED,61
1056795,Distributor of Kerala,Kerala Retailer 107651,7770900070,Plot No 107651 Kerala,10.850485,76.2711,Center of Kerala,India,Kerala,,,,107651,9107618706,DEEPAK KHANDELWAL,,YES,RECHARGE & ACTIVATION,GCMO,STARTER PACK AND RECHARGE,B,OTHERS,NA,MULTI BRANDED,75
1056795,Distributor of Kerala,Kerala Retailer 107691,7770900070,Plot No 107691 Kerala,10.85049,76.2711,Center of Kerala,India,Kerala,,,,107691,9107685217,SUDEEP JAMINI,,YES,RECHARGE & ACTIVATION,GCMO,STARTER PACK AND RECHARGE,A+,TELECOM,GS,MULTI BRANDED,157
1056795,Distributor of Kerala,Kerala Retailer 107651,7770900071,Plot No 107651 Kerala,10.850495,76.2711,Center of Kerala,India,Kerala,,,,107651,91076104972,VISHWANATH VIJAY,,YES,RECHARGE,GCMO,RECHARGE COUPON,E,CHEMIST,GS,MULTI BRANDED,50
1056795,Distributor of Kerala,Kerala Retailer 107651,7770900071,Plot No 107651 Kerala,10.8505,76.2711,Center of Kerala,India,Kerala,,,,107651,9107699325,BHAGWAN DAS,,YES,RECHARGE & ACTIVATION,GCMO,STARTER PACK AND RECHARGE,D,OTHERS,GS,MULTI BRANDED,193
1056795,Distributor of Kerala,Kerala Retailer 107651,7770900072,Plot No 107651 Kerala,10.850505,76.2711,Center of Kerala,India,Kerala,,,,107651,9107656403,RAVI AGRAWAL,,YES,RECHARGE & ACTIVATION,GCMO,STARTER PACK AND RECHARGE,B,OTHERS,GS,MULTI BRANDED,78
1056795,Distributor of Kerala,Kerala Retailer 107611,7770900072,Plot No 107611 Kerala,10.85051,76.2711,Center of Kerala,India,Kerala,,,,107611,9107639583,ASHOK MAHESHWARI,,YES,RECHARGE,GCMO,RECHARGE COUPON,E,TELECOM,NA,MULTI BRANDED,31
1056795,Distributor of Kerala,Kerala Retailer 107651,7770900073,Plot No 107651 Kerala,10.850515,76.2711,Center of Kerala,India,Kerala,,,,107651,910766286,SUNIL KUMAR SHARMA,,YES,RECHARGE & ACTIVATION,GCMO,STARTER PACK AND RECHARGE,A+,TELECOM,NA,MULTI BRANDED,22
1056795,Distributor of Kerala,Kerala Retailer 107651,7770900073,Plot No 107651 Kerala,10.850485,76.2711,Center of Kerala,India,Kerala,,,,107651,9107689935,MANTHAN KHATRI,,YES,RECHARGE,GCMO,RECHARGE COUPON,E,OTHERS,NA,MULTI BRANDED,38
1056795,Distributor of Kerala,Kerala Retailer 107691,7770900074,Plot No 107691 Kerala,10.85049,76.2711,Center of Kerala,India,Kerala,,,,107691,91076104326,RAJEEV SHARMA,,YES,RECHARGE,GCMO,RECHARGE COUPON,E,GENERAL STORE,NA,MULTI BRANDED,148
1056795,Distributor of Kerala,Kerala Retailer 107651,7770900074,Plot No 107651 Kerala,10.850495,76.2711,Center of Kerala,India,Kerala,,,,107651,9107625543,SUNIL JAIN,,YES,RECHARGE & ACTIVATION,GCMO,STARTER PACK AND RECHARGE,C,GENERAL STORE,NA,MULTI BRANDED,111
1056795,Distributor of Kerala,Kerala Retailer 107651,7770900075,Plot No 107651 Kerala,10.8505,76.2711,Center of Kerala,India,Kerala,,,,107651,9107675350,MUKESH KANEWAL,,YES,RECHARGE & ACTIVATION,GCMO,STARTER PACK AND RECHARGE,A+,TELECOM,GS,MULTI BRANDED,65
1056795,Distributor of Kerala,Kerala Retailer 107655,7770900075,Plot No 107655 Kerala,10.850505,76.271105,Center of Kerala,India,Kerala,,,,107655,9107616759,ASHISH PAREEK,,YES,RECHARGE & ACTIVATION,GCMO,STARTER PACK AND RECHARGE,B,TELECOM,NONLIT,MULTI BRANDED,183
1056795,Distributor of Kerala,Kerala Retailer 107611,7770900076,Plot No 107611 Kerala,10.85051,76.27111,Center of Kerala,India,Kerala,,,,107611,9107683296,RAMAN M.M.,,YES,RECHARGE,GCMO,RECHARGE COUPON,E,OTHERS,NA,MULTI BRANDED,61
1056795,Distributor of Kerala,Kerala Retailer 107655,7770900076,Plot No 107655 Kerala,10.850515,76.271115,Center of Kerala,India,Kerala,,,,107655,9107694604,ASHISH VERMA,,YES,RECHARGE & ACTIVATION,GCMO,STARTER PACK AND RECHARGE,A+,TELECOM,NA,MULTI BRANDED,75
1056795,Distributor of Kerala,Kerala Retailer 107655,7770900077,Plot No 107655 Kerala,10.850515,76.271115,Center of Kerala,India,Kerala,,,,107655,910767340,N.L. JONWAL,,YES,RECHARGE,GCMO,RECHARGE COUPON,E,GENERAL STORE,NA,MULTI BRANDED,46
1056795,Distributor of Kerala,Kerala Retailer 107611,7770900077,Plot No 107611 Kerala,10.85051,76.27111,Center of Kerala,India,Kerala,,,,107611,9107640741,LOKESH AKHODIA,,YES,RECHARGE,GCMO,RECHARGE COUPON,E,GENERAL STORE,NONLIT,MULTI BRANDED,178
1056795,Distributor of Kerala,Kerala Retailer 107655,7770900078,Plot No 107655 Kerala,10.850505,76.271105,Center of Kerala,India,Kerala,,,,107655,9107661090,BHANU DHAKAD,,YES,RECHARGE & ACTIVATION,GCMO,STARTER PACK AND RECHARGE,B,OTHERS,NA,MULTI BRANDED,96
1056795,Distributor of Kerala,Kerala Retailer 107651,7770900078,Plot No 107651 Kerala,10.8505,76.2711,Center of Kerala,India,Kerala,,,,107651,9107694785,RAMDAYAL CHOUDHARY,,YES,RECHARGE & ACTIVATION,GCMO,STARTER PACK AND RECHARGE,A+,TELECOM,NONLIT,MULTI BRANDED,169
1056795,Distributor of Kerala,Kerala Retailer 107655,7770900079,Plot No 107655 Kerala,10.850495,76.271095,Center of Kerala,India,Kerala,,,,107655,9107673715,RAKESH KUMAWAT,,YES,RECHARGE & ACTIVATION,GCMO,STARTER PACK AND RECHARGE,C,TELECOM,NA,MULTI BRANDED,100
1056795,Distributor of Kerala,Kerala Retailer 107699,7770900079,Plot No 107699 Kerala,10.85049,76.27109,Center of Kerala,India,Kerala,,,,107699,9107636948,RAJENDRA PRASAD YOGI,,YES,RECHARGE & ACTIVATION,GCMO,STARTER PACK AND RECHARGE,B,TELECOM,NA,MULTI BRANDED,153
1056795,Distributor of Kerala,Kerala Retailer 107655,7770900080,Plot No 107655 Kerala,10.850485,76.271085,Center of Kerala,India,Kerala,,,,107655,9107622211,MAHAVEER PRASAD JAIN,,YES,RECHARGE & ACTIVATION,GCMO,STARTER PACK AND RECHARGE,D,GENERAL STORE,NA,MULTI BRANDED,72
1056796,Distributor of Tamil Nadu,Tamil Nadu Retailer 117815,7770900080,Plot No 117815 Tamil Nadu,11.1271,78.656885,Center of Tamil Nadu,India,Tamil Nadu,,,,117815,9117876086,MANJU JAIN,,YES,RECHARGE & ACTIVATION,GCMO,STARTER PACK AND RECHARGE,C,TELECOM,GS,MULTI BRANDED,51
1056796,Distributor of Tamil Nadu,Tamil Nadu Retailer 117819,7770900081,Plot No 117819 Tamil Nadu,11.1271,78.65689,Center of Tamil Nadu,India,Tamil Nadu,,,,117819,9117890438,RAKESH SHARMA,,YES,RECHARGE & ACTIVATION,GCMO,STARTER PACK AND RECHARGE,C,TELECOM,GS,MULTI BRANDED,75
1056796,Distributor of Tamil Nadu,Tamil Nadu Retailer 117815,7770900081,Plot No 117815 Tamil Nadu,11.1271,78.656895,Center of Tamil Nadu,India,Tamil Nadu,,,,117815,9117888957,RAMVEER SINGH,,YES,RECHARGE,GCMO,RECHARGE COUPON,E,GENERAL STORE,NA,MULTI BRANDED,127
1056796,Distributor of Tamil Nadu,Tamil Nadu Retailer 117819,7770900082,Plot No 117819 Tamil Nadu,11.1271,78.6569,Center of Tamil Nadu,India,Tamil Nadu,,,,117819,9117879384,CHUTTAN LAL JI,,YES,RECHARGE & ACTIVATION,GCMO,STARTER PACK AND RECHARGE,C,OTHERS,NA,MULTI BRANDED,41
1056796,Distributor of Tamil Nadu,Tamil Nadu Retailer 117815,7770900082,Plot No 117815 Tamil Nadu,11.1271,78.656905,Center of Tamil Nadu,India,Tamil Nadu,,,,117815,9117822244,RADHEY SHYAM,,YES,RECHARGE & ACTIVATION,GCMO,STARTER PACK AND RECHARGE,A+,TELECOM,NONLIT,MULTI BRANDED,66
1056796,Distributor of Tamil Nadu,Tamil Nadu Retailer 117811,7770900083,Plot No 117811 Tamil Nadu,11.1271,78.65691,Center of Tamil Nadu,India,Tamil Nadu,,,,117811,9117861200,NEERAJ ARYA,,YES,RECHARGE & ACTIVATION,GCMO,STARTER PACK AND RECHARGE,D,TELECOM,NA,MULTI BRANDED,167
1056796,Distributor of Tamil Nadu,Tamil Nadu Retailer 117815,7770900083,Plot No 117815 Tamil Nadu,11.1271,78.656915,Center of Tamil Nadu,India,Tamil Nadu,,,,117815,9117838757,LALARAM SHARMA,,YES,RECHARGE & ACTIVATION,GCMO,STARTER PACK AND RECHARGE,A+,TELECOM,NONLIT,MULTI BRANDED,10
1056796,Distributor of Tamil Nadu,Tamil Nadu Retailer 117859,7770900084,Plot No 117859 Tamil Nadu,11.127085,78.6569,Center of Tamil Nadu,India,Tamil Nadu,,,,117859,9117860404,MAHENDRA KUMAR JAIN,,YES,RECHARGE & ACTIVATION,GCMO,STARTER PACK AND RECHARGE,B,OTHERS,NA,MULTI BRANDED,130
1056796,Distributor of Tamil Nadu,Tamil Nadu Retailer 117899,7770900084,Plot No 117899 Tamil Nadu,11.12709,78.6569,Center of Tamil Nadu,India,Tamil Nadu,,,,117899,9117860754,SUMER SINGH,,YES,RECHARGE & ACTIVATION,GCMO,STARTER PACK AND RECHARGE,D,TELECOM,NA,MULTI BRANDED,63
1056796,Distributor of Tamil Nadu,Tamil Nadu Retailer 117859,7770900085,Plot No 117859 Tamil Nadu,11.127095,78.6569,Center of Tamil Nadu,India,Tamil Nadu,,,,117859,91178105872,MAHESH KUMAR JANGID,,YES,RECHARGE & ACTIVATION,GCMO,STARTER PACK AND RECHARGE,B,TELECOM,GS,MULTI BRANDED,12
1056796,Distributor of Tamil Nadu,Tamil Nadu Retailer 117819,7770900085,Plot No 117819 Tamil Nadu,11.1271,78.6569,Center of Tamil Nadu,India,Tamil Nadu,,,,117819,9117898822,KAILASH SAINI,,YES,RECHARGE & ACTIVATION,GCMO,STARTER PACK AND RECHARGE,C,TELECOM,NA,MULTI BRANDED,67
1056796,Distributor of Tamil Nadu,Tamil Nadu Retailer 117859,7770900086,Plot No 117859 Tamil Nadu,11.127105,78.6569,Center of Tamil Nadu,India,Tamil Nadu,,,,117859,9117846853,RAJENDRA   ,,YES,RECHARGE,GCMO,RECHARGE COUPON,E,GENERAL STORE,NA,MULTI BRANDED,77
1056796,Distributor of Tamil Nadu,Tamil Nadu Retailer 117819,7770900086,Plot No 117819 Tamil Nadu,11.12711,78.6569,Center of Tamil Nadu,India,Tamil Nadu,,,,117819,91178107141,RAJESH KUMAR SHARMA,,YES,RECHARGE & ACTIVATION,GCMO,STARTER PACK AND RECHARGE,B,TELECOM,GS,MULTI BRANDED,145
1056796,Distributor of Tamil Nadu,Tamil Nadu Retailer 117859,7770900087,Plot No 117859 Tamil Nadu,11.127115,78.6569,Center of Tamil Nadu,India,Tamil Nadu,,,,117859,9117846821,ASHOK GUPTA,,YES,RECHARGE,GCMO,RECHARGE COUPON,E,GENERAL STORE,NA,MULTI BRANDED,77
1056796,Distributor of Tamil Nadu,Tamil Nadu Retailer 117859,7770900087,Plot No 117859 Tamil Nadu,11.127085,78.6569,Center of Tamil Nadu,India,Tamil Nadu,,,,117859,911787680,GIRIRAJ PRADHAN,,YES,RECHARGE & ACTIVATION,GCMO,STARTER PACK AND RECHARGE,A,OTHERS,LIT,MULTI BRANDED,14
1056796,Distributor of Tamil Nadu,Tamil Nadu Retailer 117899,7770900088,Plot No 117899 Tamil Nadu,11.12709,78.6569,Center of Tamil Nadu,India,Tamil Nadu,,,,117899,9117822240,RAJESH GUPTA,,YES,RECHARGE & ACTIVATION,GCMO,STARTER PACK AND RECHARGE,C,GENERAL STORE,NONLIT,MULTI BRANDED,82
1056796,Distributor of Tamil Nadu,Tamil Nadu Retailer 117859,7770900088,Plot No 117859 Tamil Nadu,11.127095,78.6569,Center of Tamil Nadu,India,Tamil Nadu,,,,117859,9117867754,MOHD. SHAKIR,,YES,RECHARGE,GCMO,RECHARGE COUPON,E,OTHERS,NA,MULTI BRANDED,111
1056796,Distributor of Tamil Nadu,Tamil Nadu Retailer 117819,7770900089,Plot No 117819 Tamil Nadu,11.1271,78.6569,Center of Tamil Nadu,India,Tamil Nadu,,,,117819,9117828285,,,YES,RECHARGE,GCMO,RECHARGE COUPON,E,GENERAL STORE,NA,MULTI BRANDED,139
1056796,Distributor of Tamil Nadu,Tamil Nadu Retailer 117855,7770900089,Plot No 117855 Tamil Nadu,11.127105,78.656905,Center of Tamil Nadu,India,Tamil Nadu,,,,117855,9117853839,SATYANARAYAN GUPTA,,YES,RECHARGE,GCMO,RECHARGE COUPON,E,GENERAL STORE,NA,MULTI BRANDED,157
1056796,Distributor of Tamil Nadu,Tamil Nadu Retailer 117811,7770900090,Plot No 117811 Tamil Nadu,11.12711,78.65691,Center of Tamil Nadu,India,Tamil Nadu,,,,117811,9117896129,KAMAL KUMAR SAINI,,YES,RECHARGE & ACTIVATION,GCMO,STARTER PACK AND RECHARGE,B,TELECOM,NA,MULTI BRANDED,146
1056796,Distributor of Tamil Nadu,Tamil Nadu Retailer 117855,7770900090,Plot No 117855 Tamil Nadu,11.127115,78.656915,Center of Tamil Nadu,India,Tamil Nadu,,,,117855,91178117802,GOPAL CHAND GURJAR,,YES,RECHARGE & ACTIVATION,GCMO,STARTER PACK AND RECHARGE,D,TELECOM,NONLIT,MULTI BRANDED,63
1056796,Distributor of Tamil Nadu,Tamil Nadu Retailer 117855,7770900091,Plot No 117855 Tamil Nadu,11.127115,78.656915,Center of Tamil Nadu,India,Tamil Nadu,,,,117855,911787909,ARIF ALI,,YES,RECHARGE & ACTIVATION,GCMO,STARTER PACK AND RECHARGE,B,GENERAL STORE,NONLIT,MULTI BRANDED,147
1056796,Distributor of Tamil Nadu,Tamil Nadu Retailer 117811,7770900091,Plot No 117811 Tamil Nadu,11.12711,78.65691,Center of Tamil Nadu,India,Tamil Nadu,,,,117811,9117858531,VIJAY KUMAR KANUNJIA,,YES,RECHARGE & ACTIVATION,GCMO,STARTER PACK AND RECHARGE,A,GENERAL STORE,NONLIT,MULTI BRANDED,68
1056796,Distributor of Tamil Nadu,Tamil Nadu Retailer 117855,7770900092,Plot No 117855 Tamil Nadu,11.127105,78.656905,Center of Tamil Nadu,India,Tamil Nadu,,,,117855,91178115449,VIMAL VERMA,,YES,RECHARGE & ACTIVATION,GCMO,STARTER PACK AND RECHARGE,C,TELECOM,NA,MULTI BRANDED,186
1056796,Distributor of Tamil Nadu,Tamil Nadu Retailer 117819,7770900092,Plot No 117819 Tamil Nadu,11.1271,78.6569,Center of Tamil Nadu,India,Tamil Nadu,,,,117819,9117879218,RADHA KISHAN SHARMA,,YES,RECHARGE & ACTIVATION,GCMO,STARTER PACK AND RECHARGE,D,GENERAL STORE,NA,MULTI BRANDED,181
1056796,Distributor of Tamil Nadu,Tamil Nadu Retailer 117855,7770900093,Plot No 117855 Tamil Nadu,11.127095,78.656895,Center of Tamil Nadu,India,Tamil Nadu,,,,117855,9117815589,RAMNIWAS CHOUDHARY,,YES,RECHARGE & ACTIVATION,GCMO,STARTER PACK AND RECHARGE,B,TELECOM,NONLIT,MULTI BRANDED,166
1056796,Distributor of Tamil Nadu,Tamil Nadu Retailer 117899,7770900093,Plot No 117899 Tamil Nadu,11.12709,78.65689,Center of Tamil Nadu,India,Tamil Nadu,,,,117899,9117830538,GAURI SHANKAR SHARMA,,YES,RECHARGE & ACTIVATION,GCMO,STARTER PACK AND RECHARGE,A+,OTHERS,NONLIT,MULTI BRANDED,105
1056796,Distributor of Tamil Nadu,Tamil Nadu Retailer 117855,7770900094,Plot No 117855 Tamil Nadu,11.127085,78.656885,Center of Tamil Nadu,India,Tamil Nadu,,,,117855,9117821416,RAJESH CHAUDHARY,,YES,RECHARGE & ACTIVATION,GCMO,STARTER PACK AND RECHARGE,A+,TELECOM,GS,MULTI BRANDED,67
1056797,Distributor of Andaman and Nicobar,Andaman and Nicobar Retailer 119275,7770900094,Plot No 119275 Andaman and Nicobar,11.7400867,92.658585,Center of Andaman and Nicobar,India,Andaman and Nicobar,,,,119275,9119291810,SHANKAR SINGH SHERAWAT,,YES,RECHARGE,GCMO,RECHARGE COUPON,E,OTHERS,NA,MULTI BRANDED,128
1056797,Distributor of Andaman and Nicobar,Andaman and Nicobar Retailer 119279,7770900095,Plot No 119279 Andaman and Nicobar,11.7400867,92.65859,Center of Andaman and Nicobar,India,Andaman and Nicobar,,,,119279,91192115767,MURLI VIJAY,,YES,RECHARGE & ACTIVATION,GCMO,STARTER PACK AND RECHARGE,B,OTHERS,NA,MULTI BRANDED,140
1056797,Distributor of Andaman and Nicobar,Andaman and Nicobar Retailer 119275,7770900095,Plot No 119275 Andaman and Nicobar,11.7400867,92.658595,Center of Andaman and Nicobar,India,Andaman and Nicobar,,,,119275,9119260021,GHASIRAM SHARMA,,YES,RECHARGE & ACTIVATION,GCMO,STARTER PACK AND RECHARGE,A,TELECOM,GS,MULTI BRANDED,163
1056797,Distributor of Andaman and Nicobar,Andaman and Nicobar Retailer 119276,7770900096,Plot No 119276 Andaman and Nicobar,11.7400867,92.6586,Center of Andaman and Nicobar,India,Andaman and Nicobar,,,,119276,9119285488,PRIYANKA JAIN,,YES,RECHARGE & ACTIVATION,GCMO,STARTER PACK AND RECHARGE,A+,TELECOM,NONLIT,MULTI BRANDED,170
1056797,Distributor of Andaman and Nicobar,Andaman and Nicobar Retailer 119275,7770900096,Plot No 119275 Andaman and Nicobar,11.7400867,92.658605,Center of Andaman and Nicobar,India,Andaman and Nicobar,,,,119275,9119298572,SATISH KUMAR SHARMA,,YES,RECHARGE & ACTIVATION,GCMO,STARTER PACK AND RECHARGE,B,TELECOM,NONLIT,MULTI BRANDED,63
1056797,Distributor of Andaman and Nicobar,Andaman and Nicobar Retailer 119271,7770900097,Plot No 119271 Andaman and Nicobar,11.7400867,92.65861,Center of Andaman and Nicobar,India,Andaman and Nicobar,,,,119271,9119280530,ABDUL RAZZAQ,,YES,RECHARGE & ACTIVATION,GCMO,STARTER PACK AND RECHARGE,C,TELECOM,NONLIT,MULTI BRANDED,175
1056797,Distributor of Andaman and Nicobar,Andaman and Nicobar Retailer 119275,7770900097,Plot No 119275 Andaman and Nicobar,11.7400867,92.658615,Center of Andaman and Nicobar,India,Andaman and Nicobar,,,,119275,9119254427,RAMKISHAN KUMAWAT,,YES,RECHARGE & ACTIVATION,GCMO,STARTER PACK AND RECHARGE,B,TELECOM,NA,MULTI BRANDED,27
1056797,Distributor of Andaman and Nicobar,Andaman and Nicobar Retailer 119276,7770900098,Plot No 119276 Andaman and Nicobar,11.7400717,92.6586,Center of Andaman and Nicobar,India,Andaman and Nicobar,,,,119276,9119265967,MOHANLAL KUMAWAT,,YES,RECHARGE,GCMO,RECHARGE COUPON,E,GENERAL STORE,NA,MULTI BRANDED,198
1056797,Distributor of Andaman and Nicobar,Andaman and Nicobar Retailer 119276,7770900098,Plot No 119276 Andaman and Nicobar,11.7400767,92.6586,Center of Andaman and Nicobar,India,Andaman and Nicobar,,,,119276,9119292607,LAXMI NARAYAN SAINI,,YES,RECHARGE & ACTIVATION,GCMO,STARTER PACK AND RECHARGE,A,TELECOM,NONLIT,MULTI BRANDED,39
1056797,Distributor of Andaman and Nicobar,Andaman and Nicobar Retailer 119276,7770900099,Plot No 119276 Andaman and Nicobar,11.7400817,92.6586,Center of Andaman and Nicobar,India,Andaman and Nicobar,,,,119276,9119274358,RAMESH YADAV,,YES,RECHARGE & ACTIVATION,GCMO,STARTER PACK AND RECHARGE,A+,TELECOM,GS,MULTI BRANDED,142
1056797,Distributor of Andaman and Nicobar,Andaman and Nicobar Retailer 119276,7770900099,Plot No 119276 Andaman and Nicobar,11.7400867,92.6586,Center of Andaman and Nicobar,India,Andaman and Nicobar,,,,119276,9119214978,MANOJ NAGAR,,YES,RECHARGE & ACTIVATION,GCMO,STARTER PACK AND RECHARGE,C,TELECOM,NONLIT,MULTI BRANDED,81
1056797,Distributor of Andaman and Nicobar,Andaman and Nicobar Retailer 119276,7770900100,Plot No 119276 Andaman and Nicobar,11.7400917,92.6586,Center of Andaman and Nicobar,India,Andaman and Nicobar,,,,119276,9119295440,BHARAT SHARMA,,YES,RECHARGE & ACTIVATION,GCMO,STARTER PACK AND RECHARGE,A,TELECOM,GS,MULTI BRANDED,87
1056797,Distributor of Andaman and Nicobar,Andaman and Nicobar Retailer 119276,7770900100,Plot No 119276 Andaman and Nicobar,11.7400967,92.6586,Center of Andaman and Nicobar,India,Andaman and Nicobar,,,,119276,9119225177,PRAKASH BAGDE,,YES,RECHARGE & ACTIVATION,GCMO,STARTER PACK AND RECHARGE,A,TELECOM,NONLIT,MULTI BRANDED,87
1056797,Distributor of Andaman and Nicobar,Andaman and Nicobar Retailer 119276,7770900101,Plot No 119276 Andaman and Nicobar,11.7401017,92.6586,Center of Andaman and Nicobar,India,Andaman and Nicobar,,,,119276,9119264805,RAKESH GUPTA,,YES,RECHARGE & ACTIVATION,GCMO,STARTER PACK AND RECHARGE,A,CHEMIST,NA,MULTI BRANDED,96
1056797,Distributor of Andaman and Nicobar,Andaman and Nicobar Retailer 119276,7770900101,Plot No 119276 Andaman and Nicobar,11.7400717,92.6586,Center of Andaman and Nicobar,India,Andaman and Nicobar,,,,119276,9119220690,SHIVRAJ BAIRWA,,YES,RECHARGE & ACTIVATION,GCMO,STARTER PACK AND RECHARGE,C,OTHERS,NA,MULTI BRANDED,146
1056797,Distributor of Andaman and Nicobar,Andaman and Nicobar Retailer 119276,7770900102,Plot No 119276 Andaman and Nicobar,11.7400767,92.6586,Center of Andaman and Nicobar,India,Andaman and Nicobar,JAIPUR,JAIPUR,JAIPUR,119276,911928631,YUNUS KHAN,,,RECHARGE,GCMO,STARTER PACK AND RECHARGE,B,TELECOM,NA,MULTI BRANDED,58
1056797,Distributor of Andaman and Nicobar,Andaman and Nicobar Retailer 119276,7770900102,Plot No 119276 Andaman and Nicobar,11.7400817,92.6586,Center of Andaman and Nicobar,India,Andaman and Nicobar,,,,119276,9119267633,MANBAR DENI,,YES,RECHARGE,GCMO,RECHARGE COUPON,E,GENERAL STORE,NA,MULTI BRANDED,132
1056797,Distributor of Andaman and Nicobar,Andaman and Nicobar Retailer 119276,7770900103,Plot No 119276 Andaman and Nicobar,11.7400867,92.6586,Center of Andaman and Nicobar,India,Andaman and Nicobar,,,,119276,9119273125,HEMRAJ SAHOO,,YES,RECHARGE,GCMO,RECHARGE COUPON,E,TELECOM,NONLIT,MULTI BRANDED,138
1056797,Distributor of Andaman and Nicobar,Andaman and Nicobar Retailer 119275,7770900103,Plot No 119275 Andaman and Nicobar,11.7400917,92.658605,Center of Andaman and Nicobar,India,Andaman and Nicobar,,,,119275,91192109172,GHANSHYAM SHARMA,,YES,RECHARGE & ACTIVATION,GCMO,STARTER PACK AND RECHARGE,B,TELECOM,NA,MULTI BRANDED,151
1056797,Distributor of Andaman and Nicobar,Andaman and Nicobar Retailer 119271,7770900104,Plot No 119271 Andaman and Nicobar,11.7400967,92.65861,Center of Andaman and Nicobar,India,Andaman and Nicobar,,,,119271,9119249191,MAHESH SUWALKI,,YES,RECHARGE & ACTIVATION,GCMO,STARTER PACK AND RECHARGE,C,TELECOM,NONLIT,MULTI BRANDED,50
1056797,Distributor of Andaman and Nicobar,Andaman and Nicobar Retailer 119275,7770900104,Plot No 119275 Andaman and Nicobar,11.7401017,92.658615,Center of Andaman and Nicobar,India,Andaman and Nicobar,,,,119275,9119285233,VINOD KUMAR JAIN,,YES,RECHARGE & ACTIVATION,GCMO,STARTER PACK AND RECHARGE,D,GENERAL STORE,NA,MULTI BRANDED,39
1056797,Distributor of Andaman and Nicobar,Andaman and Nicobar Retailer 119275,7770900105,Plot No 119275 Andaman and Nicobar,11.7401017,92.658615,Center of Andaman and Nicobar,India,Andaman and Nicobar,,,,119275,9119284273,SIRAJ MOHAMMAD,,YES,RECHARGE & ACTIVATION,GCMO,STARTER PACK AND RECHARGE,C,OTHER,NA,MULTI BRANDED,13
1056797,Distributor of Andaman and Nicobar,Andaman and Nicobar Retailer 119271,7770900105,Plot No 119271 Andaman and Nicobar,11.7400967,92.65861,Center of Andaman and Nicobar,India,Andaman and Nicobar,,,,119271,911921662,OM PRAKASH SAINI,,YES,RECHARGE & ACTIVATION,GCMO,STARTER PACK AND RECHARGE,A+,TELECOM,NA,MULTI BRANDED,16
1056797,Distributor of Andaman and Nicobar,Andaman and Nicobar Retailer 119275,7770900106,Plot No 119275 Andaman and Nicobar,11.7400917,92.658605,Center of Andaman and Nicobar,India,Andaman and Nicobar,,,,119275,91192109196,RAM RATAN CHOUDHARY,,YES,RECHARGE & ACTIVATION,GCMO,STARTER PACK AND RECHARGE,B,TELECOM,LIT,MULTI BRANDED,143
1056797,Distributor of Andaman and Nicobar,Andaman and Nicobar Retailer 119276,7770900106,Plot No 119276 Andaman and Nicobar,11.7400867,92.6586,Center of Andaman and Nicobar,India,Andaman and Nicobar,,,,119276,9119270854,RADHA MOHAN SAINI,,YES,RECHARGE & ACTIVATION,GCMO,STARTER PACK AND RECHARGE,A+,TELECOM,NA,MULTI BRANDED,19
1056797,Distributor of Andaman and Nicobar,Andaman and Nicobar Retailer 119275,7770900107,Plot No 119275 Andaman and Nicobar,11.7400817,92.658595,Center of Andaman and Nicobar,India,Andaman and Nicobar,,,,119275,9119245978,MAHADEV CHOUDHARY,,YES,RECHARGE & ACTIVATION,GCMO,STARTER PACK AND RECHARGE,A+,TELECOM,LIT,MULTI BRANDED,14
1056797,Distributor of Andaman and Nicobar,Andaman and Nicobar Retailer 119279,7770900107,Plot No 119279 Andaman and Nicobar,11.7400767,92.65859,Center of Andaman and Nicobar,India,Andaman and Nicobar,,,,119279,911925487,MURLI MANOHAR SHARMA,,YES,RECHARGE & ACTIVATION,GCMO,STARTER PACK AND RECHARGE,B,TELECOM,NA,MULTI BRANDED,126
1056797,Distributor of Andaman and Nicobar,Andaman and Nicobar Retailer 119275,7770900108,Plot No 119275 Andaman and Nicobar,11.7400717,92.658585,Center of Andaman and Nicobar,India,Andaman and Nicobar,,,,119275,9119222025,VIJAY KUMAR SINGH,,YES,RECHARGE & ACTIVATION,GCMO,STARTER PACK AND RECHARGE,B,TELECOM,LIT,MULTI BRANDED,192
1056798,Distributor of Puducherry,Puducherry Retailer 117928,7770900108,Plot No 117928 Puducherry,11.911082,79.812518,Center of Puducherry,India,Puducherry,,,,117928,9117955843,AVINASH KHANDELWAL,,YES,RECHARGE,GCMO,RECHARGE COUPON,E,GENERAL STORE,NONLIT,MULTI BRANDED,25
1056798,Distributor of Puducherry,Puducherry Retailer 117923,7770900109,Plot No 117923 Puducherry,11.911082,79.812523,Center of Puducherry,India,Puducherry,,,,117923,9117992361,HEMRAJ,,YES,RECHARGE & ACTIVATION,GCMO,STARTER PACK AND RECHARGE,C,TELECOM,NONLIT,MULTI BRANDED,94
1056798,Distributor of Puducherry,Puducherry Retailer 117928,7770900109,Plot No 117928 Puducherry,11.911082,79.812528,Center of Puducherry,India,Puducherry,,,,117928,9117959733,GOPAL CHOUDHARY,,YES,RECHARGE & ACTIVATION,GCMO,STARTER PACK AND RECHARGE,B,TELECOM,LIT,MULTI BRANDED,99
1056798,Distributor of Puducherry,Puducherry Retailer 117923,7770900110,Plot No 117923 Puducherry,11.911082,79.812533,Center of Puducherry,India,Puducherry,,,,117923,9117945167,AJIT SINGH RATHORE,,YES,RECHARGE & ACTIVATION,GCMO,STARTER PACK AND RECHARGE,A+,TELECOM,LIT,MULTI BRANDED,160
1056798,Distributor of Puducherry,Puducherry Retailer 117928,7770900110,Plot No 117928 Puducherry,11.911082,79.812538,Center of Puducherry,India,Puducherry,,,,117928,9117955870,AMIT PAREEK,,YES,RECHARGE & ACTIVATION,GCMO,STARTER PACK AND RECHARGE,A+,TELECOM,NA,MULTI BRANDED,69
1056798,Distributor of Puducherry,Puducherry Retailer 117923,7770900111,Plot No 117923 Puducherry,11.911082,79.812543,Center of Puducherry,India,Puducherry,,,,117923,9117917108,BHANWAR,,YES,RECHARGE & ACTIVATION,GCMO,STARTER PACK AND RECHARGE,A+,TELECOM,NONLIT,MULTI BRANDED,89
1056798,Distributor of Puducherry,Puducherry Retailer 117928,7770900111,Plot No 117928 Puducherry,11.911082,79.812548,Center of Puducherry,India,Puducherry,,,,117928,91179111438,RAJESH KHANDELWAL,,YES,RECHARGE,GCMO,RECHARGE COUPON,E,GENERAL STORE,NONLIT,MULTI BRANDED,174
1056798,Distributor of Puducherry,Puducherry Retailer 117973,7770900112,Plot No 117973 Puducherry,11.911067,79.812533,Center of Puducherry,India,Puducherry,,,,117973,9117966853,AMIT PAREEK,,YES,RECHARGE,GCMO,RECHARGE COUPON,E,TELECOM,NONLIT,MULTI BRANDED,176
1056798,Distributor of Puducherry,Puducherry Retailer 117923,7770900112,Plot No 117923 Puducherry,11.911072,79.812533,Center of Puducherry,India,Puducherry,,,,117923,9117927693,SUNIL AGARWAL,,YES,RECHARGE & ACTIVATION,GCMO,STARTER PACK AND RECHARGE,B,GENERAL STORE,GS & NONLIT,MULTI BRANDED,117
1056798,Distributor of Puducherry,Puducherry Retailer 117973,7770900113,Plot No 117973 Puducherry,11.911077,79.812533,Center of Puducherry,India,Puducherry,,,,117973,9117956304,MUKESH KUMAR CHOUDHARY,,YES,RECHARGE,GCMO,RECHARGE COUPON,E,GENERAL STORE,NONLIT,MULTI BRANDED,125
1056798,Distributor of Puducherry,Puducherry Retailer 117923,7770900113,Plot No 117923 Puducherry,11.911082,79.812533,Center of Puducherry,India,Puducherry,,,,117923,9117942433,AJAY KHANDELWAL,,YES,RECHARGE & ACTIVATION,GCMO,STARTER PACK AND RECHARGE,B,GENERAL STORE,NONLIT,MULTI BRANDED,89
1056798,Distributor of Puducherry,Puducherry Retailer 117973,7770900114,Plot No 117973 Puducherry,11.911087,79.812533,Center of Puducherry,India,Puducherry,,,,117973,9117920698,ABHISHEK SOLANKI,,YES,RECHARGE & ACTIVATION,GCMO,STARTER PACK AND RECHARGE,A+,TELECOM,NONLIT,MULTI BRANDED,142
1056798,Distributor of Puducherry,Puducherry Retailer 117923,7770900114,Plot No 117923 Puducherry,11.911092,79.812533,Center of Puducherry,India,Puducherry,,,,117923,9117960599,JITENDRA KUMAR,,YES,RECHARGE,GCMO,RECHARGE COUPON,E,GENERAL STORE,NONLIT,MULTI BRANDED,188
1056798,Distributor of Puducherry,Puducherry Retailer 117973,7770900115,Plot No 117973 Puducherry,11.911097,79.812533,Center of Puducherry,India,Puducherry,,,,117973,9117910441,DEVENDRA GUPTA,,YES,RECHARGE & ACTIVATION,GCMO,STARTER PACK AND RECHARGE,A+,TELECOM,GS   ,MULTI BRANDED,69
1056798,Distributor of Puducherry,Puducherry Retailer 117973,7770900115,Plot No 117973 Puducherry,11.911067,79.812533,Center of Puducherry,India,Puducherry,,,,117973,9117970749,YOGESH GARG,,YES,RECHARGE & ACTIVATION,GCMO,STARTER PACK AND RECHARGE,A+,TELECOM,GS,MULTI BRANDED,21
1056798,Distributor of Puducherry,Puducherry Retailer 117923,7770900116,Plot No 117923 Puducherry,11.911072,79.812533,Center of Puducherry,India,Puducherry,,,,117923,91179101353,SHYAM SUNDAR GOYAL,,YES,RECHARGE & ACTIVATION,GCMO,STARTER PACK AND RECHARGE,A+,OTHERS,GS,MULTI BRANDED,193
1056798,Distributor of Puducherry,Puducherry Retailer 117973,7770900116,Plot No 117973 Puducherry,11.911077,79.812533,Center of Puducherry,India,Puducherry,,,,117973,9117966096,MAHAVIR SWAMI,,YES,RECHARGE,GCMO,RECHARGE COUPON,E,OTHERS,NA,MULTI BRANDED,166
1056798,Distributor of Puducherry,Puducherry Retailer 117923,7770900117,Plot No 117923 Puducherry,11.911082,79.812533,Center of Puducherry,India,Puducherry,,,,117923,9117939124,MANNA RAM,,YES,RECHARGE & ACTIVATION,GCMO,STARTER PACK AND RECHARGE,A,OTHERS,GS,MULTI BRANDED,193
1056798,Distributor of Puducherry,Puducherry Retailer 117978,7770900117,Plot No 117978 Puducherry,11.911087,79.812538,Center of Puducherry,India,Puducherry,,,,117978,91179105347,MONESH KISHORE SAINI,,YES,RECHARGE & ACTIVATION,GCMO,STARTER PACK AND RECHARGE,C,OTHERS,GS,MULTI BRANDED,15
1056798,Distributor of Puducherry,Puducherry Retailer 117923,7770900118,Plot No 117923 Puducherry,11.911092,79.812543,Center of Puducherry,India,Puducherry,,,,117923,91179100787,DHEERAJ TURPANI,,YES,RECHARGE & ACTIVATION,GCMO,STARTER PACK AND RECHARGE,A,OTHERS,NA,MULTI BRANDED,183
1056798,Distributor of Puducherry,Puducherry Retailer 117978,7770900118,Plot No 117978 Puducherry,11.911097,79.812548,Center of Puducherry,India,Puducherry,,,,117978,911796036,KISHORE PARWANI,,YES,RECHARGE & ACTIVATION,GCMO,STARTER PACK AND RECHARGE,A+,TELECOM,NONLIT,MULTI BRANDED,78
1056798,Distributor of Puducherry,Puducherry Retailer 117978,7770900119,Plot No 117978 Puducherry,11.911097,79.812548,Center of Puducherry,India,Puducherry,,,,117978,9117954660,MANISH GUPTA,,YES,RECHARGE & ACTIVATION,GCMO,STARTER PACK AND RECHARGE,A,OTHERS,NA,MULTI BRANDED,138
1056798,Distributor of Puducherry,Puducherry Retailer 117923,7770900119,Plot No 117923 Puducherry,11.911092,79.812543,Center of Puducherry,India,Puducherry,,,,117923,9117999117,MAHENDRA KUMAR MAHESHCHANDANI,,YES,RECHARGE,GCMO,RECHARGE COUPON,E,OTHERS,NA,MULTI BRANDED,31
1056798,Distributor of Puducherry,Puducherry Retailer 117978,7770900120,Plot No 117978 Puducherry,11.911087,79.812538,Center of Puducherry,India,Puducherry,,,,117978,9117953467,KANHAIYA LAL SHARMA,,YES,RECHARGE,GCMO,RECHARGE COUPON,E,GENERAL STORE,NA,MULTI BRANDED,131
1056798,Distributor of Puducherry,Puducherry Retailer 117923,7770900120,Plot No 117923 Puducherry,11.911082,79.812533,Center of Puducherry,India,Puducherry,,,,117923,9117973941,SUNNY JINDAL,,YES,RECHARGE,GCMO,RECHARGE COUPON,E,TELECOM,NA,MULTI BRANDED,112
1056798,Distributor of Puducherry,Puducherry Retailer 117978,7770900121,Plot No 117978 Puducherry,11.911077,79.812528,Center of Puducherry,India,Puducherry,,,,117978,9117993215,DEEPAK KHANDELWAL,,YES,RECHARGE & ACTIVATION,GCMO,STARTER PACK AND RECHARGE,B,OTHERS,NA,MULTI BRANDED,111
1056798,Distributor of Puducherry,Puducherry Retailer 117923,7770900121,Plot No 117923 Puducherry,11.911072,79.812523,Center of Puducherry,India,Puducherry,,,,117923,9117917473,SUDEEP JAMINI,,YES,RECHARGE & ACTIVATION,GCMO,STARTER PACK AND RECHARGE,A+,TELECOM,GS,MULTI BRANDED,30
1056798,Distributor of Puducherry,Puducherry Retailer 117978,7770900122,Plot No 117978 Puducherry,11.911067,79.812518,Center of Puducherry,India,Puducherry,,,,117978,9117994656,VISHWANATH VIJAY,,YES,RECHARGE,GCMO,RECHARGE COUPON,E,CHEMIST,GS,MULTI BRANDED,189
1056799,Distributor of Goa,Goa Retailer 157435,7770900122,Plot No 157435 Goa,15.2993,74.123985,Center of Goa,India,Goa,,,,157435,91574137733,BHAGWAN DAS,,YES,RECHARGE & ACTIVATION,GCMO,STARTER PACK AND RECHARGE,D,OTHERS,GS,MULTI BRANDED,45
1056799,Distributor of Goa,Goa Retailer 157439,7770900123,Plot No 157439 Goa,15.2993,74.12399,Center of Goa,India,Goa,,,,157439,91574107375,RAVI AGRAWAL,,YES,RECHARGE & ACTIVATION,GCMO,STARTER PACK AND RECHARGE,B,OTHERS,GS,MULTI BRANDED,119
1056799,Distributor of Goa,Goa Retailer 157435,7770900123,Plot No 157435 Goa,15.2993,74.123995,Center of Goa,India,Goa,,,,157435,9157473483,ASHOK MAHESHWARI,,YES,RECHARGE,GCMO,RECHARGE COUPON,E,TELECOM,NA,MULTI BRANDED,138
1056799,Distributor of Goa,Goa Retailer 157434,7770900124,Plot No 157434 Goa,15.2993,74.124,Center of Goa,India,Goa,,,,157434,9157472145,SUNIL KUMAR SHARMA,,YES,RECHARGE & ACTIVATION,GCMO,STARTER PACK AND RECHARGE,A+,TELECOM,NA,MULTI BRANDED,84
1056799,Distributor of Goa,Goa Retailer 157435,7770900124,Plot No 157435 Goa,15.2993,74.124005,Center of Goa,India,Goa,,,,157435,9157452839,MANTHAN KHATRI,,YES,RECHARGE,GCMO,RECHARGE COUPON,E,OTHERS,NA,MULTI BRANDED,20
1056799,Distributor of Goa,Goa Retailer 157431,7770900125,Plot No 157431 Goa,15.2993,74.12401,Center of Goa,India,Goa,,,,157431,91574118704,RAJEEV SHARMA,,YES,RECHARGE,GCMO,RECHARGE COUPON,E,GENERAL STORE,NA,MULTI BRANDED,82
1056799,Distributor of Goa,Goa Retailer 157435,7770900125,Plot No 157435 Goa,15.2993,74.124015,Center of Goa,India,Goa,,,,157435,9157498734,SUNIL JAIN,,YES,RECHARGE & ACTIVATION,GCMO,STARTER PACK AND RECHARGE,C,GENERAL STORE,NA,MULTI BRANDED,60
1056799,Distributor of Goa,Goa Retailer 157454,7770900126,Plot No 157454 Goa,15.299285,74.124,Center of Goa,India,Goa,,,,157454,91574139600,MUKESH KANEWAL,,YES,RECHARGE & ACTIVATION,GCMO,STARTER PACK AND RECHARGE,A+,TELECOM,GS,MULTI BRANDED,12
1056799,Distributor of Goa,Goa Retailer 157494,7770900126,Plot No 157494 Goa,15.29929,74.124,Center of Goa,India,Goa,,,,157494,91574108569,ASHISH PAREEK,,YES,RECHARGE & ACTIVATION,GCMO,STARTER PACK AND RECHARGE,B,TELECOM,NONLIT,MULTI BRANDED,142
1056799,Distributor of Goa,Goa Retailer 157454,7770900127,Plot No 157454 Goa,15.299295,74.124,Center of Goa,India,Goa,,,,157454,91574156126,RAMAN M.M.,,YES,RECHARGE,GCMO,RECHARGE COUPON,E,OTHERS,NA,MULTI BRANDED,169
1056799,Distributor of Goa,Goa Retailer 157434,7770900127,Plot No 157434 Goa,15.2993,74.124,Center of Goa,India,Goa,,,,157434,91574115749,ASHISH VERMA,,YES,RECHARGE & ACTIVATION,GCMO,STARTER PACK AND RECHARGE,A+,TELECOM,NA,MULTI BRANDED,176
1056799,Distributor of Goa,Goa Retailer 157454,7770900128,Plot No 157454 Goa,15.299305,74.124,Center of Goa,India,Goa,,,,157454,91574108164,N.L. JONWAL,,YES,RECHARGE,GCMO,RECHARGE COUPON,E,GENERAL STORE,NA,MULTI BRANDED,129
1056799,Distributor of Goa,Goa Retailer 157414,7770900128,Plot No 157414 Goa,15.29931,74.124,Center of Goa,India,Goa,,,,157414,91574126608,LOKESH AKHODIA,,YES,RECHARGE,GCMO,RECHARGE COUPON,E,GENERAL STORE,NONLIT,MULTI BRANDED,32
1056799,Distributor of Goa,Goa Retailer 157454,7770900129,Plot No 157454 Goa,15.299315,74.124,Center of Goa,India,Goa,,,,157454,91574155112,BHANU DHAKAD,,YES,RECHARGE & ACTIVATION,GCMO,STARTER PACK AND RECHARGE,B,OTHERS,NA,MULTI BRANDED,192
1056799,Distributor of Goa,Goa Retailer 157454,7770900129,Plot No 157454 Goa,15.299285,74.124,Center of Goa,India,Goa,,,,157454,91574119760,RAMDAYAL CHOUDHARY,,YES,RECHARGE & ACTIVATION,GCMO,STARTER PACK AND RECHARGE,A+,TELECOM,NONLIT,MULTI BRANDED,152
1056799,Distributor of Goa,Goa Retailer 157494,7770900130,Plot No 157494 Goa,15.29929,74.124,Center of Goa,India,Goa,,,,157494,9157445861,RAKESH KUMAWAT,,YES,RECHARGE & ACTIVATION,GCMO,STARTER PACK AND RECHARGE,C,TELECOM,NA,MULTI BRANDED,199
1056799,Distributor of Goa,Goa Retailer 157454,7770900130,Plot No 157454 Goa,15.299295,74.124,Center of Goa,India,Goa,,,,157454,9157488898,RAJENDRA PRASAD YOGI,,YES,RECHARGE & ACTIVATION,GCMO,STARTER PACK AND RECHARGE,B,TELECOM,NA,MULTI BRANDED,158
1056799,Distributor of Goa,Goa Retailer 157434,7770900131,Plot No 157434 Goa,15.2993,74.124,Center of Goa,India,Goa,,,,157434,9157493143,MAHAVEER PRASAD JAIN,,YES,RECHARGE & ACTIVATION,GCMO,STARTER PACK AND RECHARGE,D,GENERAL STORE,NA,MULTI BRANDED,132
1056799,Distributor of Goa,Goa Retailer 157455,7770900131,Plot No 157455 Goa,15.299305,74.124005,Center of Goa,India,Goa,,,,157455,9157418626,MANJU JAIN,,YES,RECHARGE & ACTIVATION,GCMO,STARTER PACK AND RECHARGE,C,TELECOM,GS,MULTI BRANDED,119
1056799,Distributor of Goa,Goa Retailer 157411,7770900132,Plot No 157411 Goa,15.29931,74.12401,Center of Goa,India,Goa,,,,157411,9157482348,RAKESH SHARMA,,YES,RECHARGE & ACTIVATION,GCMO,STARTER PACK AND RECHARGE,C,TELECOM,GS,MULTI BRANDED,121
1056799,Distributor of Goa,Goa Retailer 157455,7770900132,Plot No 157455 Goa,15.299315,74.124015,Center of Goa,India,Goa,,,,157455,9157453573,RAMVEER SINGH,,YES,RECHARGE,GCMO,RECHARGE COUPON,E,GENERAL STORE,NA,MULTI BRANDED,117
1056799,Distributor of Goa,Goa Retailer 157455,7770900133,Plot No 157455 Goa,15.299315,74.124015,Center of Goa,India,Goa,,,,157455,9157439173,CHUTTAN LAL JI,,YES,RECHARGE & ACTIVATION,GCMO,STARTER PACK AND RECHARGE,C,OTHERS,NA,MULTI BRANDED,54
1056799,Distributor of Goa,Goa Retailer 157411,7770900133,Plot No 157411 Goa,15.29931,74.12401,Center of Goa,India,Goa,,,,157411,9157443161,RADHEY SHYAM,,YES,RECHARGE & ACTIVATION,GCMO,STARTER PACK AND RECHARGE,A+,TELECOM,NONLIT,MULTI BRANDED,12
1056799,Distributor of Goa,Goa Retailer 157455,7770900134,Plot No 157455 Goa,15.299305,74.124005,Center of Goa,India,Goa,,,,157455,9157444968,NEERAJ ARYA,,YES,RECHARGE & ACTIVATION,GCMO,STARTER PACK AND RECHARGE,D,TELECOM,NA,MULTI BRANDED,44
1056799,Distributor of Goa,Goa Retailer 157434,7770900134,Plot No 157434 Goa,15.2993,74.124,Center of Goa,India,Goa,,,,157434,9157458304,LALARAM SHARMA,,YES,RECHARGE & ACTIVATION,GCMO,STARTER PACK AND RECHARGE,A+,TELECOM,NONLIT,MULTI BRANDED,74
1056799,Distributor of Goa,Goa Retailer 157455,7770900135,Plot No 157455 Goa,15.299295,74.123995,Center of Goa,India,Goa,,,,157455,915741238,MAHENDRA KUMAR JAIN,,YES,RECHARGE & ACTIVATION,GCMO,STARTER PACK AND RECHARGE,B,OTHERS,NA,MULTI BRANDED,57
1056799,Distributor of Goa,Goa Retailer 157499,7770900135,Plot No 157499 Goa,15.29929,74.12399,Center of Goa,India,Goa,,,,157499,91574109398,SUMER SINGH,,YES,RECHARGE & ACTIVATION,GCMO,STARTER PACK AND RECHARGE,D,TELECOM,NA,MULTI BRANDED,74
1056799,Distributor of Goa,Goa Retailer 157455,7770900136,Plot No 157455 Goa,15.299285,74.123985,Center of Goa,India,Goa,,,,157455,91574112308,MAHESH KUMAR JANGID,,YES,RECHARGE & ACTIVATION,GCMO,STARTER PACK AND RECHARGE,B,TELECOM,GS,MULTI BRANDED,144
1056800,Distributor of Karnataka,Karnataka Retailer 157535,7770900136,Plot No 157535 Karnataka,15.3173,75.713885,Center of Karnataka,India,Karnataka,,,,157535,9157546240,KAILASH SAINI,,YES,RECHARGE & ACTIVATION,GCMO,STARTER PACK AND RECHARGE,C,TELECOM,NA,MULTI BRANDED,153
1056800,Distributor of Karnataka,Karnataka Retailer 157539,7770900137,Plot No 157539 Karnataka,15.3173,75.71389,Center of Karnataka,India,Karnataka,,,,157539,9157572577,RAJENDRA   ,,YES,RECHARGE,GCMO,RECHARGE COUPON,E,GENERAL STORE,NA,MULTI BRANDED,75
1056800,Distributor of Karnataka,Karnataka Retailer 157535,7770900137,Plot No 157535 Karnataka,15.3173,75.713895,Center of Karnataka,India,Karnataka,,,,157535,91575131986,RAJESH KUMAR SHARMA,,YES,RECHARGE & ACTIVATION,GCMO,STARTER PACK AND RECHARGE,B,TELECOM,GS,MULTI BRANDED,106
1056800,Distributor of Karnataka,Karnataka Retailer 157539,7770900138,Plot No 157539 Karnataka,15.3173,75.7139,Center of Karnataka,India,Karnataka,,,,157539,91575102815,ASHOK GUPTA,,YES,RECHARGE,GCMO,RECHARGE COUPON,E,GENERAL STORE,NA,MULTI BRANDED,122
1056800,Distributor of Karnataka,Karnataka Retailer 157535,7770900138,Plot No 157535 Karnataka,15.3173,75.713905,Center of Karnataka,India,Karnataka,,,,157535,91575136206,GIRIRAJ PRADHAN,,YES,RECHARGE & ACTIVATION,GCMO,STARTER PACK AND RECHARGE,A,OTHERS,LIT,MULTI BRANDED,172
1056800,Distributor of Karnataka,Karnataka Retailer 157531,7770900139,Plot No 157531 Karnataka,15.3173,75.71391,Center of Karnataka,India,Karnataka,,,,157531,9157580060,RAJESH GUPTA,,YES,RECHARGE & ACTIVATION,GCMO,STARTER PACK AND RECHARGE,C,GENERAL STORE,NONLIT,MULTI BRANDED,118
1056800,Distributor of Karnataka,Karnataka Retailer 157535,7770900139,Plot No 157535 Karnataka,15.3173,75.713915,Center of Karnataka,India,Karnataka,,,,157535,91575157463,MOHD. SHAKIR,,YES,RECHARGE,GCMO,RECHARGE COUPON,E,OTHERS,NA,MULTI BRANDED,21
1056800,Distributor of Karnataka,Karnataka Retailer 157559,7770900140,Plot No 157559 Karnataka,15.317285,75.7139,Center of Karnataka,India,Karnataka,,,,157559,91575100963,,,YES,RECHARGE,GCMO,RECHARGE COUPON,E,GENERAL STORE,NA,MULTI BRANDED,164
1056800,Distributor of Karnataka,Karnataka Retailer 157599,7770900140,Plot No 157599 Karnataka,15.31729,75.7139,Center of Karnataka,India,Karnataka,,,,157599,9157533156,SATYANARAYAN GUPTA,,YES,RECHARGE,GCMO,RECHARGE COUPON,E,GENERAL STORE,NA,MULTI BRANDED,56
1056800,Distributor of Karnataka,Karnataka Retailer 157559,7770900141,Plot No 157559 Karnataka,15.317295,75.7139,Center of Karnataka,India,Karnataka,,,,157559,9157546094,KAMAL KUMAR SAINI,,YES,RECHARGE & ACTIVATION,GCMO,STARTER PACK AND RECHARGE,B,TELECOM,NA,MULTI BRANDED,183
1056800,Distributor of Karnataka,Karnataka Retailer 157539,7770900141,Plot No 157539 Karnataka,15.3173,75.7139,Center of Karnataka,India,Karnataka,,,,157539,91575105168,GOPAL CHAND GURJAR,,YES,RECHARGE & ACTIVATION,GCMO,STARTER PACK AND RECHARGE,D,TELECOM,NONLIT,MULTI BRANDED,58
1056800,Distributor of Karnataka,Karnataka Retailer 157559,7770900142,Plot No 157559 Karnataka,15.317305,75.7139,Center of Karnataka,India,Karnataka,,,,157559,9157557490,ARIF ALI,,YES,RECHARGE & ACTIVATION,GCMO,STARTER PACK AND RECHARGE,B,GENERAL STORE,NONLIT,MULTI BRANDED,144
1056800,Distributor of Karnataka,Karnataka Retailer 157519,7770900142,Plot No 157519 Karnataka,15.31731,75.7139,Center of Karnataka,India,Karnataka,,,,157519,9157589093,VIJAY KUMAR KANUNJIA,,YES,RECHARGE & ACTIVATION,GCMO,STARTER PACK AND RECHARGE,A,GENERAL STORE,NONLIT,MULTI BRANDED,81
1056800,Distributor of Karnataka,Karnataka Retailer 157559,7770900143,Plot No 157559 Karnataka,15.317315,75.7139,Center of Karnataka,India,Karnataka,,,,157559,9157534861,VIMAL VERMA,,YES,RECHARGE & ACTIVATION,GCMO,STARTER PACK AND RECHARGE,C,TELECOM,NA,MULTI BRANDED,19
1056800,Distributor of Karnataka,Karnataka Retailer 157559,7770900143,Plot No 157559 Karnataka,15.317285,75.7139,Center of Karnataka,India,Karnataka,,,,157559,9157593048,RADHA KISHAN SHARMA,,YES,RECHARGE & ACTIVATION,GCMO,STARTER PACK AND RECHARGE,D,GENERAL STORE,NA,MULTI BRANDED,97
1056800,Distributor of Karnataka,Karnataka Retailer 157599,7770900144,Plot No 157599 Karnataka,15.31729,75.7139,Center of Karnataka,India,Karnataka,,,,157599,9157517341,RAMNIWAS CHOUDHARY,,YES,RECHARGE & ACTIVATION,GCMO,STARTER PACK AND RECHARGE,B,TELECOM,NONLIT,MULTI BRANDED,38
1056800,Distributor of Karnataka,Karnataka Retailer 157559,7770900144,Plot No 157559 Karnataka,15.317295,75.7139,Center of Karnataka,India,Karnataka,,,,157559,9157527427,GAURI SHANKAR SHARMA,,YES,RECHARGE & ACTIVATION,GCMO,STARTER PACK AND RECHARGE,A+,OTHERS,NONLIT,MULTI BRANDED,183
1056800,Distributor of Karnataka,Karnataka Retailer 157539,7770900145,Plot No 157539 Karnataka,15.3173,75.7139,Center of Karnataka,India,Karnataka,,,,157539,91575127234,RAJESH CHAUDHARY,,YES,RECHARGE & ACTIVATION,GCMO,STARTER PACK AND RECHARGE,A+,TELECOM,GS,MULTI BRANDED,141
1056800,Distributor of Karnataka,Karnataka Retailer 157555,7770900145,Plot No 157555 Karnataka,15.317305,75.713905,Center of Karnataka,India,Karnataka,,,,157555,915758992,SHANKAR SINGH SHERAWAT,,YES,RECHARGE,GCMO,RECHARGE COUPON,E,OTHERS,NA,MULTI BRANDED,179
1056800,Distributor of Karnataka,Karnataka Retailer 157511,7770900146,Plot No 157511 Karnataka,15.31731,75.71391,Center of Karnataka,India,Karnataka,,,,157511,9157551902,MURLI VIJAY,,YES,RECHARGE & ACTIVATION,GCMO,STARTER PACK AND RECHARGE,B,OTHERS,NA,MULTI BRANDED,113
1056800,Distributor of Karnataka,Karnataka Retailer 157555,7770900146,Plot No 157555 Karnataka,15.317315,75.713915,Center of Karnataka,India,Karnataka,,,,157555,91575126808,GHASIRAM SHARMA,,YES,RECHARGE & ACTIVATION,GCMO,STARTER PACK AND RECHARGE,A,TELECOM,GS,MULTI BRANDED,190
1056800,Distributor of Karnataka,Karnataka Retailer 157555,7770900147,Plot No 157555 Karnataka,15.317315,75.713915,Center of Karnataka,India,Karnataka,,,,157555,9157519081,PRIYANKA JAIN,,YES,RECHARGE & ACTIVATION,GCMO,STARTER PACK AND RECHARGE,A+,TELECOM,NONLIT,MULTI BRANDED,130
1056800,Distributor of Karnataka,Karnataka Retailer 157511,7770900147,Plot No 157511 Karnataka,15.31731,75.71391,Center of Karnataka,India,Karnataka,,,,157511,91575139011,SATISH KUMAR SHARMA,,YES,RECHARGE & ACTIVATION,GCMO,STARTER PACK AND RECHARGE,B,TELECOM,NONLIT,MULTI BRANDED,91
1056800,Distributor of Karnataka,Karnataka Retailer 157555,7770900148,Plot No 157555 Karnataka,15.317305,75.713905,Center of Karnataka,India,Karnataka,,,,157555,91575106315,ABDUL RAZZAQ,,YES,RECHARGE & ACTIVATION,GCMO,STARTER PACK AND RECHARGE,C,TELECOM,NONLIT,MULTI BRANDED,13
1056800,Distributor of Karnataka,Karnataka Retailer 157539,7770900148,Plot No 157539 Karnataka,15.3173,75.7139,Center of Karnataka,India,Karnataka,,,,157539,9157539818,RAMKISHAN KUMAWAT,,YES,RECHARGE & ACTIVATION,GCMO,STARTER PACK AND RECHARGE,B,TELECOM,NA,MULTI BRANDED,98
1056800,Distributor of Karnataka,Karnataka Retailer 157555,7770900149,Plot No 157555 Karnataka,15.317295,75.713895,Center of Karnataka,India,Karnataka,,,,157555,91575147087,MOHANLAL KUMAWAT,,YES,RECHARGE,GCMO,RECHARGE COUPON,E,GENERAL STORE,NA,MULTI BRANDED,68
1056800,Distributor of Karnataka,Karnataka Retailer 157599,7770900149,Plot No 157599 Karnataka,15.31729,75.71389,Center of Karnataka,India,Karnataka,,,,157599,91575103865,LAXMI NARAYAN SAINI,,YES,RECHARGE & ACTIVATION,GCMO,STARTER PACK AND RECHARGE,A,TELECOM,NONLIT,MULTI BRANDED,25
1056800,Distributor of Karnataka,Karnataka Retailer 157555,7770900150,Plot No 157555 Karnataka,15.317285,75.713885,Center of Karnataka,India,Karnataka,,,,157555,91575148600,RAMESH YADAV,,YES,RECHARGE & ACTIVATION,GCMO,STARTER PACK AND RECHARGE,A+,TELECOM,GS,MULTI BRANDED,50
1056801,Distributor of Andhra Pradesh,Andhra Pradesh Retailer 157995,7770900150,Plot No 157995 Andhra Pradesh,15.9129,79.739985,Center of Andhra Pradesh,India,Andhra Pradesh,,,,157995,9157921586,MANOJ NAGAR,,YES,RECHARGE & ACTIVATION,GCMO,STARTER PACK AND RECHARGE,C,TELECOM,NONLIT,MULTI BRANDED,65
1056801,Distributor of Andhra Pradesh,Andhra Pradesh Retailer 157999,7770900151,Plot No 157999 Andhra Pradesh,15.9129,79.73999,Center of Andhra Pradesh,India,Andhra Pradesh,,,,157999,9157913473,BHARAT SHARMA,,YES,RECHARGE & ACTIVATION,GCMO,STARTER PACK AND RECHARGE,A,TELECOM,GS,MULTI BRANDED,199
1056801,Distributor of Andhra Pradesh,Andhra Pradesh Retailer 157995,7770900151,Plot No 157995 Andhra Pradesh,15.9129,79.739995,Center of Andhra Pradesh,India,Andhra Pradesh,,,,157995,91579153691,PRAKASH BAGDE,,YES,RECHARGE & ACTIVATION,GCMO,STARTER PACK AND RECHARGE,A,TELECOM,NONLIT,MULTI BRANDED,78
1056801,Distributor of Andhra Pradesh,Andhra Pradesh Retailer 157994,7770900152,Plot No 157994 Andhra Pradesh,15.9129,79.74,Center of Andhra Pradesh,India,Andhra Pradesh,,,,157994,915791849,RAKESH GUPTA,,YES,RECHARGE & ACTIVATION,GCMO,STARTER PACK AND RECHARGE,A,CHEMIST,NA,MULTI BRANDED,23
1056801,Distributor of Andhra Pradesh,Andhra Pradesh Retailer 157995,7770900152,Plot No 157995 Andhra Pradesh,15.9129,79.740005,Center of Andhra Pradesh,India,Andhra Pradesh,,,,157995,9157981432,SHIVRAJ BAIRWA,,YES,RECHARGE & ACTIVATION,GCMO,STARTER PACK AND RECHARGE,C,OTHERS,NA,MULTI BRANDED,124
1056801,Distributor of Andhra Pradesh,Andhra Pradesh Retailer 157991,7770900153,Plot No 157991 Andhra Pradesh,15.9129,79.74001,Center of Andhra Pradesh,India,Andhra Pradesh,JAIPUR,JAIPUR,JAIPUR,157991,9157943885,YUNUS KHAN,,,RECHARGE,GCMO,STARTER PACK AND RECHARGE,B,TELECOM,NA,MULTI BRANDED,112
1056801,Distributor of Andhra Pradesh,Andhra Pradesh Retailer 157995,7770900153,Plot No 157995 Andhra Pradesh,15.9129,79.740015,Center of Andhra Pradesh,India,Andhra Pradesh,,,,157995,91579126673,MANBAR DENI,,YES,RECHARGE,GCMO,RECHARGE COUPON,E,GENERAL STORE,NA,MULTI BRANDED,10
1056801,Distributor of Andhra Pradesh,Andhra Pradesh Retailer 157954,7770900154,Plot No 157954 Andhra Pradesh,15.912885,79.74,Center of Andhra Pradesh,India,Andhra Pradesh,,,,157954,9157982718,HEMRAJ SAHOO,,YES,RECHARGE,GCMO,RECHARGE COUPON,E,TELECOM,NONLIT,MULTI BRANDED,94
1056801,Distributor of Andhra Pradesh,Andhra Pradesh Retailer 157994,7770900154,Plot No 157994 Andhra Pradesh,15.91289,79.74,Center of Andhra Pradesh,India,Andhra Pradesh,,,,157994,9157973622,GHANSHYAM SHARMA,,YES,RECHARGE & ACTIVATION,GCMO,STARTER PACK AND RECHARGE,B,TELECOM,NA,MULTI BRANDED,80
1056801,Distributor of Andhra Pradesh,Andhra Pradesh Retailer 157954,7770900155,Plot No 157954 Andhra Pradesh,15.912895,79.74,Center of Andhra Pradesh,India,Andhra Pradesh,,,,157954,9157910929,MAHESH SUWALKI,,YES,RECHARGE & ACTIVATION,GCMO,STARTER PACK AND RECHARGE,C,TELECOM,NONLIT,MULTI BRANDED,15
1056801,Distributor of Andhra Pradesh,Andhra Pradesh Retailer 157994,7770900155,Plot No 157994 Andhra Pradesh,15.9129,79.74,Center of Andhra Pradesh,India,Andhra Pradesh,,,,157994,9157989633,VINOD KUMAR JAIN,,YES,RECHARGE & ACTIVATION,GCMO,STARTER PACK AND RECHARGE,D,GENERAL STORE,NA,MULTI BRANDED,194
1056801,Distributor of Andhra Pradesh,Andhra Pradesh Retailer 157954,7770900156,Plot No 157954 Andhra Pradesh,15.912905,79.74,Center of Andhra Pradesh,India,Andhra Pradesh,,,,157954,9157939779,SIRAJ MOHAMMAD,,YES,RECHARGE & ACTIVATION,GCMO,STARTER PACK AND RECHARGE,C,OTHER,NA,MULTI BRANDED,154
1056801,Distributor of Andhra Pradesh,Andhra Pradesh Retailer 157914,7770900156,Plot No 157914 Andhra Pradesh,15.91291,79.74,Center of Andhra Pradesh,India,Andhra Pradesh,,,,157914,91579134355,OM PRAKASH SAINI,,YES,RECHARGE & ACTIVATION,GCMO,STARTER PACK AND RECHARGE,A+,TELECOM,NA,MULTI BRANDED,18
1056801,Distributor of Andhra Pradesh,Andhra Pradesh Retailer 157954,7770900157,Plot No 157954 Andhra Pradesh,15.912915,79.74,Center of Andhra Pradesh,India,Andhra Pradesh,,,,157954,91579131100,RAM RATAN CHOUDHARY,,YES,RECHARGE & ACTIVATION,GCMO,STARTER PACK AND RECHARGE,B,TELECOM,LIT,MULTI BRANDED,124
1056801,Distributor of Andhra Pradesh,Andhra Pradesh Retailer 157954,7770900157,Plot No 157954 Andhra Pradesh,15.912885,79.74,Center of Andhra Pradesh,India,Andhra Pradesh,,,,157954,9157924342,RADHA MOHAN SAINI,,YES,RECHARGE & ACTIVATION,GCMO,STARTER PACK AND RECHARGE,A+,TELECOM,NA,MULTI BRANDED,25
1056801,Distributor of Andhra Pradesh,Andhra Pradesh Retailer 157994,7770900158,Plot No 157994 Andhra Pradesh,15.91289,79.74,Center of Andhra Pradesh,India,Andhra Pradesh,,,,157994,91579114368,MAHADEV CHOUDHARY,,YES,RECHARGE & ACTIVATION,GCMO,STARTER PACK AND RECHARGE,A+,TELECOM,LIT,MULTI BRANDED,190
1056801,Distributor of Andhra Pradesh,Andhra Pradesh Retailer 157954,7770900158,Plot No 157954 Andhra Pradesh,15.912895,79.74,Center of Andhra Pradesh,India,Andhra Pradesh,,,,157954,9157934093,MURLI MANOHAR SHARMA,,YES,RECHARGE & ACTIVATION,GCMO,STARTER PACK AND RECHARGE,B,TELECOM,NA,MULTI BRANDED,140
1056801,Distributor of Andhra Pradesh,Andhra Pradesh Retailer 157994,7770900159,Plot No 157994 Andhra Pradesh,15.9129,79.74,Center of Andhra Pradesh,India,Andhra Pradesh,,,,157994,9157931540,VIJAY KUMAR SINGH,,YES,RECHARGE & ACTIVATION,GCMO,STARTER PACK AND RECHARGE,B,TELECOM,LIT,MULTI BRANDED,137
1056801,Distributor of Andhra Pradesh,Andhra Pradesh Retailer 157955,7770900159,Plot No 157955 Andhra Pradesh,15.912905,79.740005,Center of Andhra Pradesh,India,Andhra Pradesh,,,,157955,9157997403,AVINASH KHANDELWAL,,YES,RECHARGE,GCMO,RECHARGE COUPON,E,GENERAL STORE,NONLIT,MULTI BRANDED,117
1056801,Distributor of Andhra Pradesh,Andhra Pradesh Retailer 157911,7770900160,Plot No 157911 Andhra Pradesh,15.91291,79.74001,Center of Andhra Pradesh,India,Andhra Pradesh,,,,157911,9157945415,HEMRAJ,,YES,RECHARGE & ACTIVATION,GCMO,STARTER PACK AND RECHARGE,C,TELECOM,NONLIT,MULTI BRANDED,139
1056801,Distributor of Andhra Pradesh,Andhra Pradesh Retailer 157955,7770900160,Plot No 157955 Andhra Pradesh,15.912915,79.740015,Center of Andhra Pradesh,India,Andhra Pradesh,,,,157955,9157940637,GOPAL CHOUDHARY,,YES,RECHARGE & ACTIVATION,GCMO,STARTER PACK AND RECHARGE,B,TELECOM,LIT,MULTI BRANDED,12
1056801,Distributor of Andhra Pradesh,Andhra Pradesh Retailer 157955,7770900161,Plot No 157955 Andhra Pradesh,15.912915,79.740015,Center of Andhra Pradesh,India,Andhra Pradesh,,,,157955,9157931505,AJIT SINGH RATHORE,,YES,RECHARGE & ACTIVATION,GCMO,STARTER PACK AND RECHARGE,A+,TELECOM,LIT,MULTI BRANDED,89
1056801,Distributor of Andhra Pradesh,Andhra Pradesh Retailer 157911,7770900161,Plot No 157911 Andhra Pradesh,15.91291,79.74001,Center of Andhra Pradesh,India,Andhra Pradesh,,,,157911,9157918106,AMIT PAREEK,,YES,RECHARGE & ACTIVATION,GCMO,STARTER PACK AND RECHARGE,A+,TELECOM,NA,MULTI BRANDED,128
1056801,Distributor of Andhra Pradesh,Andhra Pradesh Retailer 157955,7770900162,Plot No 157955 Andhra Pradesh,15.912905,79.740005,Center of Andhra Pradesh,India,Andhra Pradesh,,,,157955,9157981801,BHANWAR,,YES,RECHARGE & ACTIVATION,GCMO,STARTER PACK AND RECHARGE,A+,TELECOM,NONLIT,MULTI BRANDED,87
1056801,Distributor of Andhra Pradesh,Andhra Pradesh Retailer 157994,7770900162,Plot No 157994 Andhra Pradesh,15.9129,79.74,Center of Andhra Pradesh,India,Andhra Pradesh,,,,157994,91579100956,RAJESH KHANDELWAL,,YES,RECHARGE,GCMO,RECHARGE COUPON,E,GENERAL STORE,NONLIT,MULTI BRANDED,176
1056801,Distributor of Andhra Pradesh,Andhra Pradesh Retailer 157955,7770900163,Plot No 157955 Andhra Pradesh,15.912895,79.739995,Center of Andhra Pradesh,India,Andhra Pradesh,,,,157955,9157971892,AMIT PAREEK,,YES,RECHARGE,GCMO,RECHARGE COUPON,E,TELECOM,NONLIT,MULTI BRANDED,91
1056801,Distributor of Andhra Pradesh,Andhra Pradesh Retailer 157999,7770900163,Plot No 157999 Andhra Pradesh,15.91289,79.73999,Center of Andhra Pradesh,India,Andhra Pradesh,,,,157999,91579116731,SUNIL AGARWAL,,YES,RECHARGE & ACTIVATION,GCMO,STARTER PACK AND RECHARGE,B,GENERAL STORE,GS & NONLIT,MULTI BRANDED,176
1056801,Distributor of Andhra Pradesh,Andhra Pradesh Retailer 157955,7770900164,Plot No 157955 Andhra Pradesh,15.912885,79.739985,Center of Andhra Pradesh,India,Andhra Pradesh,,,,157955,915799367,MUKESH KUMAR CHOUDHARY,,YES,RECHARGE,GCMO,RECHARGE COUPON,E,GENERAL STORE,NONLIT,MULTI BRANDED,159
1056802,Distributor of Andhra Pradesh,Andhra Pradesh Retailer 187945,7770900164,Plot No 187945 Andhra Pradesh,18.1124,79.019285,Center of Andhra Pradesh,India,Andhra Pradesh,,,,187945,9187942969,AJAY KHANDELWAL,,YES,RECHARGE & ACTIVATION,GCMO,STARTER PACK AND RECHARGE,B,GENERAL STORE,NONLIT,MULTI BRANDED,128
1056802,Distributor of Andhra Pradesh,Andhra Pradesh Retailer 187949,7770900165,Plot No 187949 Andhra Pradesh,18.1124,79.01929,Center of Andhra Pradesh,India,Andhra Pradesh,,,,187949,9187991177,ABHISHEK SOLANKI,,YES,RECHARGE & ACTIVATION,GCMO,STARTER PACK AND RECHARGE,A+,TELECOM,NONLIT,MULTI BRANDED,185
1056802,Distributor of Andhra Pradesh,Andhra Pradesh Retailer 187945,7770900165,Plot No 187945 Andhra Pradesh,18.1124,79.019295,Center of Andhra Pradesh,India,Andhra Pradesh,,,,187945,9187915716,JITENDRA KUMAR,,YES,RECHARGE,GCMO,RECHARGE COUPON,E,GENERAL STORE,NONLIT,MULTI BRANDED,142
1056802,Distributor of Andhra Pradesh,Andhra Pradesh Retailer 187943,7770900166,Plot No 187943 Andhra Pradesh,18.1124,79.0193,Center of Andhra Pradesh,India,Andhra Pradesh,,,,187943,9187970785,DEVENDRA GUPTA,,YES,RECHARGE & ACTIVATION,GCMO,STARTER PACK AND RECHARGE,A+,TELECOM,GS   ,MULTI BRANDED,25
1056802,Distributor of Andhra Pradesh,Andhra Pradesh Retailer 187945,7770900166,Plot No 187945 Andhra Pradesh,18.1124,79.019305,Center of Andhra Pradesh,India,Andhra Pradesh,,,,187945,91879125715,YOGESH GARG,,YES,RECHARGE & ACTIVATION,GCMO,STARTER PACK AND RECHARGE,A+,TELECOM,GS,MULTI BRANDED,21
1056802,Distributor of Andhra Pradesh,Andhra Pradesh Retailer 187941,7770900167,Plot No 187941 Andhra Pradesh,18.1124,79.01931,Center of Andhra Pradesh,India,Andhra Pradesh,,,,187941,91879174770,SHYAM SUNDAR GOYAL,,YES,RECHARGE & ACTIVATION,GCMO,STARTER PACK AND RECHARGE,A+,OTHERS,GS,MULTI BRANDED,118
1056802,Distributor of Andhra Pradesh,Andhra Pradesh Retailer 187945,7770900167,Plot No 187945 Andhra Pradesh,18.1124,79.019315,Center of Andhra Pradesh,India,Andhra Pradesh,,,,187945,91879100108,MAHAVIR SWAMI,,YES,RECHARGE,GCMO,RECHARGE COUPON,E,OTHERS,NA,MULTI BRANDED,27
1056802,Distributor of Andhra Pradesh,Andhra Pradesh Retailer 187953,7770900168,Plot No 187953 Andhra Pradesh,18.112385,79.0193,Center of Andhra Pradesh,India,Andhra Pradesh,,,,187953,91879106507,MANNA RAM,,YES,RECHARGE & ACTIVATION,GCMO,STARTER PACK AND RECHARGE,A,OTHERS,GS,MULTI BRANDED,182
1056802,Distributor of Andhra Pradesh,Andhra Pradesh Retailer 187993,7770900168,Plot No 187993 Andhra Pradesh,18.11239,79.0193,Center of Andhra Pradesh,India,Andhra Pradesh,,,,187993,9187930199,MONESH KISHORE SAINI,,YES,RECHARGE & ACTIVATION,GCMO,STARTER PACK AND RECHARGE,C,OTHERS,GS,MULTI BRANDED,29
1056802,Distributor of Andhra Pradesh,Andhra Pradesh Retailer 187953,7770900169,Plot No 187953 Andhra Pradesh,18.112395,79.0193,Center of Andhra Pradesh,India,Andhra Pradesh,,,,187953,91879154946,DHEERAJ TURPANI,,YES,RECHARGE & ACTIVATION,GCMO,STARTER PACK AND RECHARGE,A,OTHERS,NA,MULTI BRANDED,157
1056802,Distributor of Andhra Pradesh,Andhra Pradesh Retailer 187943,7770900169,Plot No 187943 Andhra Pradesh,18.1124,79.0193,Center of Andhra Pradesh,India,Andhra Pradesh,,,,187943,918796010,KISHORE PARWANI,,YES,RECHARGE & ACTIVATION,GCMO,STARTER PACK AND RECHARGE,A+,TELECOM,NONLIT,MULTI BRANDED,144
1056802,Distributor of Andhra Pradesh,Andhra Pradesh Retailer 187953,7770900170,Plot No 187953 Andhra Pradesh,18.112405,79.0193,Center of Andhra Pradesh,India,Andhra Pradesh,,,,187953,9187940650,MANISH GUPTA,,YES,RECHARGE & ACTIVATION,GCMO,STARTER PACK AND RECHARGE,A,OTHERS,NA,MULTI BRANDED,83
1056802,Distributor of Andhra Pradesh,Andhra Pradesh Retailer 187913,7770900170,Plot No 187913 Andhra Pradesh,18.11241,79.0193,Center of Andhra Pradesh,India,Andhra Pradesh,,,,187913,9187990530,MAHENDRA KUMAR MAHESHCHANDANI,,YES,RECHARGE,GCMO,RECHARGE COUPON,E,OTHERS,NA,MULTI BRANDED,20
1056802,Distributor of Andhra Pradesh,Andhra Pradesh Retailer 187953,7770900171,Plot No 187953 Andhra Pradesh,18.112415,79.0193,Center of Andhra Pradesh,India,Andhra Pradesh,,,,187953,91879129144,KANHAIYA LAL SHARMA,,YES,RECHARGE,GCMO,RECHARGE COUPON,E,GENERAL STORE,NA,MULTI BRANDED,30
1056802,Distributor of Andhra Pradesh,Andhra Pradesh Retailer 187953,7770900171,Plot No 187953 Andhra Pradesh,18.112385,79.0193,Center of Andhra Pradesh,India,Andhra Pradesh,,,,187953,9187966761,SUNNY JINDAL,,YES,RECHARGE,GCMO,RECHARGE COUPON,E,TELECOM,NA,MULTI BRANDED,100
1056802,Distributor of Andhra Pradesh,Andhra Pradesh Retailer 187993,7770900172,Plot No 187993 Andhra Pradesh,18.11239,79.0193,Center of Andhra Pradesh,India,Andhra Pradesh,,,,187993,91879106084,DEEPAK KHANDELWAL,,YES,RECHARGE & ACTIVATION,GCMO,STARTER PACK AND RECHARGE,B,OTHERS,NA,MULTI BRANDED,193
1056802,Distributor of Andhra Pradesh,Andhra Pradesh Retailer 187953,7770900172,Plot No 187953 Andhra Pradesh,18.112395,79.0193,Center of Andhra Pradesh,India,Andhra Pradesh,,,,187953,918791265,SUDEEP JAMINI,,YES,RECHARGE & ACTIVATION,GCMO,STARTER PACK AND RECHARGE,A+,TELECOM,GS,MULTI BRANDED,191
1056802,Distributor of Andhra Pradesh,Andhra Pradesh Retailer 187943,7770900173,Plot No 187943 Andhra Pradesh,18.1124,79.0193,Center of Andhra Pradesh,India,Andhra Pradesh,,,,187943,9187939887,VISHWANATH VIJAY,,YES,RECHARGE,GCMO,RECHARGE COUPON,E,CHEMIST,GS,MULTI BRANDED,80
1056802,Distributor of Andhra Pradesh,Andhra Pradesh Retailer 187955,7770900173,Plot No 187955 Andhra Pradesh,18.112405,79.019305,Center of Andhra Pradesh,India,Andhra Pradesh,,,,187955,9187996351,BHAGWAN DAS,,YES,RECHARGE & ACTIVATION,GCMO,STARTER PACK AND RECHARGE,D,OTHERS,GS,MULTI BRANDED,122
1056802,Distributor of Andhra Pradesh,Andhra Pradesh Retailer 187911,7770900174,Plot No 187911 Andhra Pradesh,18.11241,79.01931,Center of Andhra Pradesh,India,Andhra Pradesh,,,,187911,9187929796,RAVI AGRAWAL,,YES,RECHARGE & ACTIVATION,GCMO,STARTER PACK AND RECHARGE,B,OTHERS,GS,MULTI BRANDED,135
1056802,Distributor of Andhra Pradesh,Andhra Pradesh Retailer 187955,7770900174,Plot No 187955 Andhra Pradesh,18.112415,79.019315,Center of Andhra Pradesh,India,Andhra Pradesh,,,,187955,91879151000,ASHOK MAHESHWARI,,YES,RECHARGE,GCMO,RECHARGE COUPON,E,TELECOM,NA,MULTI BRANDED,177
1056802,Distributor of Andhra Pradesh,Andhra Pradesh Retailer 187955,7770900175,Plot No 187955 Andhra Pradesh,18.112415,79.019315,Center of Andhra Pradesh,India,Andhra Pradesh,,,,187955,9187934033,SUNIL KUMAR SHARMA,,YES,RECHARGE & ACTIVATION,GCMO,STARTER PACK AND RECHARGE,A+,TELECOM,NA,MULTI BRANDED,144
